Station_ID,Station_Name,LAT,LON,Elevation,Tahun Mulai,Tahun Akhir,Data Tersedia,Data Hilang,Annual_Mean,Annual_Max,File_Updated
1,STASIUN METEOROLOGI CUT BAU MAIMUN SALEH,5.876666667,95.33777778,126,1928,2014,70,17,145.73,321,2/12/2025
2,STASIUN METEOROLOGI MALIKUSSALEH,5.228333333,96.9475,28,1951,2024,71,3,151.0591549,392.4,2/12/2025
3,STASIUN METEOROLOGI SULTAN ISKANDAR MUDA,5.5225,95.41666667,20,1982,2024,42,1,119.9190476,197,2/12/2025
4,STASIUN METEOROLOGI TJUT NYAK DIEN MEULA,4.049166667,96.24805556,3,1982,2024,42,1,169.3261905,270,2/12/2025
5,STASIUN METEOROLOGI KUALANAMU,3.645555556,98.885,23,1951,2024,73,1,128.0671233,368,2/12/2025
6,STASIUN METEOROLOGI AEK GODANG,1.55,99.45,281,2001,2024,8,16,98.0125,135,2/12/2025
7,STASIUN METEOROLOGI F. L TOBING,1.55,98.88,10,1968,2024,45,12,180.9555556,330,2/12/2025
8,STASIUN METEOROLOGI BINAKA,1.165,97.70333333,7,1951,2024,70,4,116.41,235.6,2/12/2025
9,STASIUN METEOROLOGI HANG NADIM,1.116666667,104.1166667,26,1993,2024,26,6,131.3653846,279.5,2/12/2025
10,STASIUN METEOROLOGI KIJANG,0.918055556,104.53,18,1961,2021,53,8,139.0150943,282.6,2/12/2025
11,STASIUN METEOROLOGI SULTAN SYARIF KASIM,0.459166667,101.4475,39,1951,2024,73,1,136.5328767,294.1,2/12/2025
12,STASIUN METEOROLOGI TAREMPA,3.2,106.25,2,1964,2024,36,25,149.8861111,256.8,2/12/2025
13,STASIUN METEOROLOGI RANAI,3.911666667,108.39,2,2008,2022,15,0,135.6466667,199,2/12/2025
14,STASIUN METEOROLOGI MINANGKABAU,-0.793333333,100.2891667,6,1951,2024,72,2,161.45,384.1,2/12/2025
15,STASIUN METEOROLOGI JAPURA,-0.33,102.32,19,1977,2024,44,4,112.7045455,203,2/12/2025
16,STASIUN METEOROLOGI DABO SINGKEP,-0.48,104.58,29,1964,2022,46,13,129.226087,283,2/12/2025
17,STASIUN METEOROLOGI SULTAN THAHA,-1.633333333,103.64,26,1951,2024,73,1,104.6520548,325.9,2/12/2025
18,STASIUN METEOROLOGI DEPATI PARBO,-2.083055556,101.45,782,1981,2012,27,5,74.45555556,150,2/12/2025
19,STASIUN METEOROLOGI SULTAN MAHMUD BADARU,-2.894444444,104.7013889,10,1960,2022,63,0,109.9888889,214.1,2/12/2025
20,STASIUN METEOROLOGI DEPATI AMIR,-2.17,106.13,0,1951,2024,73,1,135.6315068,351.8,2/12/2025
21,STASIUN METEOROLOGI H. ASAN HANANJOEDIN,-2.75,107.75,50,1960,2024,55,10,123.3836364,250,2/12/2025
22,STASIUN METEOROLOGI FATMAWATI SOEKARNO,-3.858055556,102.3366667,24,1971,2024,53,1,158.7886792,392,2/12/2025
23,STASIUN METEOROLOGI RADEN INTEN II,-5.16,105.11,85,1951,2024,66,8,101.9818182,263,2/12/2025
24,STASIUN METEOROLOGI RAJA HAJI ABDULLAH T,1.03,103.38,1,1994,2022,18,11,143.4111111,266.5,2/12/2025
25,STASIUN METEOROLOGI NUNUKAN,4.13,117.67,8,1998,2024,21,6,111.6095238,187.5,2/12/2025
26,STASIUN METEOROLOGI YUVAI SEMARING,3.86,115.68,1090,1974,2008,28,7,63.45357143,260,2/12/2025
27,STASIUN METEOROLOGI JUWATA,3.33,117.57,6,1966,2020,51,4,124.1686275,177.5,2/12/2025
28,STASIUN METEOROLOGI TANJUNG HARAPAN,2.5,117.22,3,1987,2012,25,1,113.936,233,2/12/2025
29,STASIUN METEOROLOGI KALIMARAU,2.145555556,117.4338889,13,1984,2018,35,0,92.45428571,192,2/12/2025
30,STASIUN METEOROLOGI PALOH,1.74,109.3,15,1983,2024,41,1,168.202439,327.5,2/12/2025
31,STASIUN METEOROLOGI NANGAIPINOH,-0.42,111.47,40,1985,2024,32,8,140.434375,239.9,2/12/2025
32,STASIUN METEOROLOGI SUSILO,0.06,111.47,31,1985,2024,39,1,127.4666667,190,2/12/2025
33,STASIUN METEOROLOGI PANGSUMA,0.84,112.93,43,1995,2018,21,3,135.4761905,207,2/12/2025
34,STASIUN METEOROLOGI SUPADIO,-0.141666667,109.45,3,1961,2024,60,4,124.7883333,341,2/12/2025
35,STASIUN METEOROLOGI BERINGIN,-0.56,114.53,42,1971,2024,23,31,134.4478261,249.1,2/12/2025
36,STASIUN METEOROLOGI TEMINDUNG,-0.48,117.16,10,1978,2024,46,1,110.8217391,327,2/12/2025
37,STASIUN METEOROLOGI RAHADI OESMAN,-1.8,109.97,9,1962,2022,46,15,147.0782609,281,2/12/2025
38,STASIUN METEOROLOGI SULTAN AJI MUHAMMAD,-1.26,116.9,3,1973,2024,51,1,123.6196078,223,2/12/2025
43,STASIUN METEOROLOGI SYAMSUDIN NOOR,-3.441666667,114.7538889,32,1961,2022,59,3,99.87627119,249,2/12/2025
44,STASIUN METEOROLOGI GUSTI SYAMSIR ALAM,-3.3,116.17,2,1982,2024,42,1,111.4404762,221,2/12/2025
45,STASIUN METEOROLOGI BUDIARTO,-6.286666667,106.5638889,42,1961,2022,60,2,101.05,227.5,2/12/2025
46,STASIUN METEOROLOGI SOEKARNO HATTA,-6.12,106.65,11,1876,2024,136,13,107.2294118,316.3,2/12/2025
47,STASIUN METEOROLOGI AHMAD YANI,-6.976666667,110.3777778,5,1960,2024,64,1,122.340625,319.5,2/12/2025
48,STASIUN METEOROLOGI JUANDA,-7.384444444,112.7830556,3,1960,2024,64,1,102.74375,267,2/12/2025
49,STASIUN METEOROLOGI NAHA,3.685555556,125.5288889,6,1982,2024,42,1,149.8404762,301,2/12/2025
50,STASIUN METEOROLOGI SAM RATULANGI,1.545555556,124.9230556,80,1948,2024,73,4,136.6424658,272,2/12/2025
51,STASIUN METEOROLOGI SULTAN BANTILAN,1.120833333,120.7941667,8,1982,2024,42,1,122.4214286,218.7,2/12/2025
52,STASIUN METEOROLOGI DJALALUDDIN,0.638333333,122.8525,33,1972,2024,49,4,84.41632653,211.1,2/12/2025
53,STASIUN METEOROLOGI MUTIARA SIS-AL JUFRI,-0.915555556,119.9055556,79,1962,1999,32,6,59.09375,263,2/12/2025
54,STASIUN METEOROLOGI SYUKRAN AMINUDIN AMI,-1.040555556,122.7708333,19,1971,2024,47,7,85.3212766,200,2/12/2025
55,STASIUN METEOROLOGI KASIGUNCU,-1.420277778,120.6566667,10,1982,2024,42,1,116.9761905,285,2/12/2025
57,STASIUN METEOROLOGI ANDI JEMMA,-2.554444444,120.3241667,43,1983,2024,41,1,124.5560976,207,2/12/2025
58,STASIUN METEOROLOGI HASANUDDIN,-5.07,119.55,14,1972,2024,52,1,159.0634615,385,2/12/2025
59,STASIUN METEOROLOGI BETO AMBARI,-5.47,122.62,233,1982,2012,31,0,113.483871,173,2/12/2025
60,STASIUN METEOROLOGI NGURAH RAI,-8.75,115.17,4,1973,2024,51,1,124.4862745,330.4,2/12/2025
62,STASIUN METEOROLOGI SULTAN MUHAMMAD KAHA,-8.488055556,117.4130556,10,1976,2024,48,1,100.6791667,218,2/12/2025
63,STASIUN METEOROLOGI SULTAN MUHAMMAD SALA,-8.542777778,118.6927778,5,1982,2024,42,1,72.62380952,151,2/12/2025
66,STASIUN METEOROLOGI FRANSISKUS XAVERIUS,-8.635555556,122.2375,28,1978,2024,46,1,90.9173913,292.2,2/12/2025
67,STASIUN METEOROLOGI GEWAYANTANA,-8.275277778,122.9983333,9,1962,2020,42,17,100.0285714,279,2/12/2025
69,STASIUN METEOROLOGI UMBU MEHANG KUDA,-9.669166667,120.2994444,10,1928,2024,81,16,98.27283951,321,2/12/2025
70,STASIUN METEOROLOGI ELTARI,-10.16777778,123.6702778,102,1973,2014,42,0,148.152381,303,2/12/2025
73,STASIUN METEOROLOGI GAMAR MALAMO,1.840555556,127.7905556,130,1984,2012,21,8,119.5714286,293,2/12/2025
74,STASIUN METEOROLOGI SULTAN BAABULLAH,0.833055556,127.38,33,1973,2024,51,1,102.1254902,220.9,2/12/2025
75,STASIUN METEOROLOGI OESMAN SADIK,-0.637777778,127.5,14,1989,2021,30,3,104.4,262,2/12/2025
76,STASIUN METEOROLOGI SEIGUN,-0.890833333,131.2855556,0,1955,2024,58,12,66.83448276,276.4,2/12/2025
77,STASIUN METEOROLOGI RENDANI,-0.891944444,134.0502778,3,1979,2024,42,4,61.46428571,189.6,2/12/2025
78,STASIUN METEOROLOGI FRANS KAISIEPO,-1.190555556,136.1033333,3,1971,2024,43,11,86.04418605,150,2/12/2025
79,STASIUN METEOROLOGI SUDJARWO TJONDRO NEG,-1.875277778,136.24,3,1970,2024,47,8,53.95957447,319,2/12/2025
80,STASIUN METEOROLOGI MARARENA,-1.85,138.75,3,1974,2022,41,8,56.63902439,320,2/12/2025
81,STASIUN METEOROLOGI EMALAMO,-2.049722222,126,2,1977,2024,43,5,93.50232558,188,2/12/2025
82,STASIUN METEOROLOGI TOREA,-2.919166667,132.2647222,126,1978,2014,36,1,135.1111111,345.9,2/12/2025
83,STASIUN METEOROLOGI MOANAMANI,-3.351944444,135.52,3,1973,2024,44,8,127.2136364,291.8,2/12/2025
84,STASIUN METEOROLOGI WAMENA JAYA WIJAYA,-4.07,138.9663889,0,1982,2020,23,16,19.97391304,150,2/12/2025
85,STASIUN METEOROLOGI SENTANI,-2.57,140.4797222,96,1947,2014,36,32,94.98611111,180,2/12/2025
86,STASIUN METEOROLOGI NAMLEA,-3.25,127.08,10,1983,2021,37,2,128.1297297,349,2/12/2025
87,STASIUN METEOROLOGI AMAHAI,-3.346388889,128.9280556,10,1980,2024,44,1,167.0659091,366,2/12/2025
88,STASIUN METEOROLOGI PATTIMURA,-3.711388889,128.0955556,14,1961,2022,53,9,76.82264151,360,2/12/2025
89,STASIUN METEOROLOGI BANDANEIRA,-3.67,133.75,5,1981,2024,27,17,159.6407407,330,2/12/2025
90,STASIUN METEOROLOGI ENAROTALI,-3.926666667,136.38,1650,1974,2006,27,6,2.962962963,80,2/12/2025
92,STASIUN METEOROLOGI MOZEZ KILANGIN,-4.53,136.8933333,30,1960,2024,40,25,109.96,306,2/12/2025
93,STASIUN METEOROLOGI DUMATUBUN TUAL,-5.663333333,132.7358333,10,1973,2024,49,3,121.7326531,239,2/12/2025
94,STASIUN METEOROLOGI TANAH MERAH,-6.1,140.31,97,1982,2006,23,2,72.13043478,308,2/12/2025
95,STASIUN METEOROLOGI MATHILDA BALTAYERI,-7.98,131.3,24,1965,2019,42,13,29.6452381,202,2/12/2025
96,STASIUN METEOROLOGI MOPAH,-8.520277778,140.4155556,0,1966,2022,56,1,75.15892857,266.7,2/12/2025
97,STASIUN METEOROLOGI MARITIM BELAWAN,3.788055556,98.715,3,1951,2022,72,0,135.2375,396,2/12/2025
98,STASIUN KLIMATOLOGI PADANG PARIAMAN,-0.545555556,100.2977778,128,1985,2013,27,2,186.3333333,324,2/12/2025
99,STASIUN METEOROLOGI MARITIM LAMPUNG,-5.471944444,105.3208333,7,1960,2024,43,22,101.4976744,204.9,2/12/2025
100,STASIUN METEOROLOGI MARITIM PONTIANAK,-0.03,109.34,4,1961,2024,60,4,113.1716667,341,2/12/2025
101,STASIUN METEOROLOGI MARITIM TANJUNG PRIO,-6.107777778,106.8805556,3,1876,2024,137,12,119.070073,361,2/12/2025
102,STASIUN METEOROLOGI MARITIM TANJUNG MAS,-6.948333333,110.42,5,1960,2024,64,1,109.425,291.7,2/12/2025
103,STASIUN METEOROLOGI MARITIM PERAK II,-7.205277778,112.7352778,3,1960,2024,64,1,96.7125,180,2/12/2025
104,STASIUN METEOROLOGI MARITIM BITUNG,1.443055556,125.1794444,4,1980,2024,44,1,111.1181818,247.5,2/12/2025
105,STASIUN METEOROLOGI MARITIM KENDARI,-3.97,122.5891667,2,1967,2022,30,26,110.9933333,213.3,2/12/2025
106,STASIUN METEOROLOGI MARITIM PAOTERE,-5.113888889,119.4194444,5,1972,2024,52,1,162.7923077,378,2/12/2025
107,STASIUN METEOROLOGI SERANG,-6.111666667,106.11,100,1961,1999,37,2,88.60540541,161,2/12/2025
109,STASIUN METEOROLOGI JATIWANGI,-6.734166667,108.2630556,85,1960,2024,64,1,125.3375,214.2,2/12/2025
110,STASIUN METEOROLOGI TEGAL,-6.868055556,109.1208333,1,1895,2022,107,21,113.0009346,217.7,2/12/2025
111,STASIUN METEOROLOGI CILACAP,-7.718888889,109.015,8,1915,2024,95,15,158.6463158,341.3,2/12/2025
112,STASIUN METEOROLOGI CITEKO,-6.7,106.85,920,1960,2024,42,23,106.9095238,245,2/12/2025
113,STASIUN METEOROLOGI SANGKAPURA,-5.85,112.63,0,1971,2024,48,6,118.6520833,214.7,2/12/2025
114,STASIUN METEOROLOGI  PERAK I,-7.223333333,112.7238889,3,1960,2024,64,1,98.7421875,190,2/12/2025
115,STASIUN METEOROLOGI KALIANGET,-7.05,113.97,0,1980,2024,44,1,95.67727273,247,2/12/2025
116,STASIUN METEOROLOGI BANYUWANGI,-8.215,114.3552778,52,1961,2022,56,6,102.7285714,210,2/12/2025
117,STASIUN METEOROLOGI MAJENE,-3.550555556,118.9805556,29,1983,2024,31,11,122.9709677,228.7,2/12/2025
119,STASIUN METEOROLOGI DOK II JAYAPURA,-2.53,140.72,3,1969,2022,52,2,82.11730769,248.8,2/12/2025
120,STASIUN METEOROLOGI GESER,-3.881388889,130.88,2,1961,2022,44,18,128.9181818,260,2/12/2025
121,STASIUN KLIMATOLOGI DELI SERDANG,3.620833333,98.71444444,25,1951,2022,72,0,123.4569444,332,2/12/2025
122,STASIUN KLIMATOLOGI ACEH BESAR,5.403888889,95.46388889,40,1982,2022,41,0,103.4,207,2/12/2025
126,STASIUN KLIMATOLOGI JEMBRANA,-8.18,115.43,140,2000,2024,24,1,138.6083333,315,2/12/2025
127,STASIUN KLIMATOLOGI BENGKULU,-3.865277778,102.3116667,12,1971,2024,53,1,160.8113208,392,2/12/2025
130,STASIUN KLIMATOLOGI BANJAR BARU,-3.461944444,114.84,55,1961,2024,60,4,117.4433333,340,2/12/2025
132,STASIUN KLIMATOLOGI BOGOR,-6.5,106.75,207,1962,2014,28,25,139.2035714,280,2/12/2025
133,STASIUN KLIMATOLOGI SEMARANG,-6.984444444,110.3808333,6,1960,2022,63,0,132.7285714,296.4,2/12/2025
134,STASIUN KLIMATOLOGI MALANG,-7.900555556,112.5977778,590,1960,2021,54,8,90.48148148,190,2/12/2025
135,STASIUN KLIMATOLOGI MINAHASA UTARA,1.545555556,124.9230556,84,1973,2022,50,0,123.004,205,2/12/2025
136,STASIUN KLIMATOLOGI MAROS,-4.9975,119.5719444,4,1972,2024,52,1,162.4480769,385,2/12/2025
139,STASIUN KLIMATOLOGI JAYAPURA,-2.591944444,140.1680556,70,1958,2021,9,55,146.1444444,200,2/12/2025
140,STASIUN KLIMATOLOGI MANOKWARI SELATAN,-1.47,134.19,20,1976,2024,44,5,46.56590909,248.8,2/12/2025
145,STASIUN GEOFISIKA TUNTUNGAN,3.500833333,98.56,86,1981,1999,19,0,98.84736842,149,2/12/2025
146,STASIUN GEOFISIKA PARAPAT,2.693888889,98.92333333,1011,1997,2010,11,3,87.61818182,105,2/12/2025
147,STASIUN GEOFISIKA SILAING BAWAH,-0.466388889,100.3794444,735,1996,2011,7,9,138.1428571,237,2/12/2025
151,PACITAN 1,-8.199722222,111.05,1,1960,2022,54,9,138.1666667,303,2/12/2025
153,HUSEIN - BANDUNG,-6.88,107.6,791,1960,2003,39,5,86.30512821,200,2/12/2025
169,HALIM PERDANA KUSUMA,-6.27,106.9,26,1876,2022,136,11,110.0426471,259,2/12/2025
171,TABANAN,-8.55,115.13,130,1907,2012,71,35,77.33802817,255.5,2/12/2025
180,STASIUN METEOROLOGI KEMAYORAN,-6.155555556,106.84,4,1876,2024,137,12,117.4270073,279.8,2/12/2025
283,STASIUN KLIMATOLOGI MUARO JAMBI,-1.601666667,103.4841667,24,1951,2024,73,1,111.9739726,325.9,2/12/2025
285,STASIUN KLIMATOLOGI PESAWARAN,-5.171944444,105.18,71,1951,2024,66,8,101.1287879,220,2/12/2025
287,POS METEOROLOGI PENGGUNG,-6.755277778,108.5391667,23,1960,2024,58,7,131.3206897,314,2/12/2025
288,STASIUN GEOFISIKA BANJARNEGARA,-7.333055556,109.7066667,608,1932,1997,47,19,137.9148936,350,2/12/2025
301,NAM                                 LAI CHAU,22.07,103.15,244,1957,1998,41,1,130.9268293,242.5,2/12/2025
302,NAM                                 SON LA,21.33,103.9,676,1961,2013,39,14,117.6358974,397,2/12/2025
303,NAM                                 SA PA,22.35,103.83,1570,1960,2000,27,14,160.3592593,336.4,2/12/2025
304,NAM                                 PHU LIEN,20.8,106.63,113,1958,2013,43,13,163.9,393,2/12/2025
305,NAM                                 LANG/HANOI,21.03,105.85,5,1961,2002,41,1,141.6634146,394.9,2/12/2025
306,NAM                                 NAM DINH,20.4,106.15,3,1961,2002,42,0,177.9357143,388,2/12/2025
307,NAM                                 VINH,18.67,105.67,6,1961,2013,40,13,275.2275,399,2/12/2025
308,NAM                                 DONG HOI,17.48,106.6,7,1956,2012,43,14,239.5209302,399,2/12/2025
309,NAM                                 HUE,16.43,107.58,17,1961,2014,36,18,282.4666667,395,2/12/2025
310,NAM                                 DA NANG,16.03,108.2,6,1976,2002,27,0,307.0740741,399,2/12/2025
311,NAM                                 NHA TRANG,12.22,109.2,5,1961,2002,41,1,165.5219512,388,2/12/2025
312,NAM                                 DA LAT,11.95,108.45,1513,1980,2000,21,0,76.91428571,113.9,2/12/2025
313,NAM                                 VUNG TAU,10.37,107.08,4,1980,2000,20,1,118.15,271.4,2/12/2025
314,NAM                                 CAN THO,10.03,105.77,3,1978,2000,23,0,87.51304348,131.8,2/12/2025
500,VIGAN ILOCOS SUR,17.55388889,120.3566667,100,1951,2008,57,1,217.7894737,395.2,2/12/2025
501,LAOAG ILOCOS NORTE,18.18,120.5,4,1951,2014,62,2,226.216129,394,2/12/2025
502,APARRI CAGAYAN,18.37,121.63,2,1951,2014,64,0,168.4046875,395,2/12/2025
503,TUGUEGARAO CAGAYAN,17.62,121.7,61,1951,2014,64,0,176.6703125,349.7,2/12/2025
504,IBA ZAMBELAS,15.33,120,4,1951,2014,61,3,236.0442623,398.4,2/12/2025
505,DAGUPAN CITY,16.05,120.3,2,1951,2014,63,1,196.0920635,398,2/12/2025
506,CABANATUAN CITY,15.48,120,32,1951,2014,61,3,155.4688525,371,2/12/2025
507,CASIGURAN QUEZON,16.28,120.1,4,1951,2008,55,3,204.5181818,393.4,2/12/2025
508,SCIENCE GARDEN Q C,14.63,121.02,41,1947,2014,68,0,172.3838235,363.7,2/12/2025
509,CALAPAN OR. MINDORO,13.42,121.2,39,1951,2014,62,2,152.4693548,277.4,2/12/2025
510,AMBULONG BATANGAS,14.08,121,11,1951,2014,63,1,153.9015873,301.5,2/12/2025
511,INFANTA QUEZON,14.75,121.7,7,1951,2014,60,4,201.365,339,2/12/2025
512,DAET CAMARIES,14.12,123,5,1951,2014,62,2,202.1887097,344.2,2/12/2025
513,LEGASPI,13.13,123.7,16,1951,2014,64,0,184.19375,315.2,2/12/2025
514,VIRAC SYNOP,13.58,124.23,39,1951,2014,62,2,189.1064516,368.4,2/12/2025
515,CORON PALAWAN,12,120.2,14,1951,2014,54,10,153.6925926,317.6,2/12/2025
516,ROMBLON ROMBLON,12.58,122.3,46,1953,2014,61,1,135.8967213,322.4,2/12/2025
517,ROXAS CITY,11.58,122.75,3,1951,2014,61,3,138.357377,300,2/12/2025
518,MASBATE MASBATE,12.37,123.6,6,1951,2014,63,1,152.2634921,269.5,2/12/2025
519,CATARMAN,12.5,124.6,4,1951,2012,59,3,195.3898305,377,2/12/2025
520,CATBALOGAN,11.78,124.9,5,1951,2014,63,1,176.9984127,387.9,2/12/2025
521,TACLOBAN,11.23,125,2,1951,2012,61,1,128.8360656,325.9,2/12/2025
522,PTO.PRINCESA,9.75,118.73,14,1951,2013,63,0,108.0603175,269.3,2/12/2025
523,CUYO,10.85,121,4,1951,2014,60,4,142.94,300,2/12/2025
524,ILOILO,10.73,122.6,7,1951,2010,60,0,137.89,319.8,2/12/2025
525,SURIGAO,9.8,125.5,54,1951,2014,56,8,202.3875,351.8,2/12/2025
526,DIPOLOG,8.6,123.3,3,1951,2014,63,1,141.152381,295.8,2/12/2025
527,DAVAO,7.12,125.7,19,1951,2014,64,0,100.8671875,223,2/12/2025
528,HINATUAN,8.369722222,126.3,3,1951,2014,62,2,213.5274194,375.5,2/12/2025
529,ZAMBOANGA,6.9,122.1,5,1951,2014,64,0,93.2609375,199.1,2/12/2025
530,GENERAL SANTOS,6.12,125.18,14,1951,2008,57,1,71.25614035,189.5,2/12/2025
532,ROTUMA,-12.5,177.05,26,1980,2010,16,15,170.64375,333,2/12/2025
535,NADI AIRPORT,-17.75,177.45,18,1980,2017,37,1,161.1621622,365,2/12/2025
549,PAGO PAGO/INT.AIRP.,-14.33166667,-170.7105556,3,1960,2009,44,6,148.4954545,271.3,2/12/2025
560,BIDYADANGA,-18.68277778,121.7827778,12,1907,2015,103,6,95.77475728,253,2/12/2025
561,BROOME AIRPORT,-17.95,122.2327778,17,1897,2015,118,1,110.020339,355.6,2/12/2025
563,ARGYLE AERODROME,-16.63277778,128.4488889,165,1907,2015,98,11,76.15510204,208.8,2/12/2025
715,ALOR SETAR,6.2,100.4,5,2004,2008,5,0,108.04,139.2,2/12/2025
718,LABUAN,5.3,115.25,30,1987,2014,27,1,148.737037,381,2/12/2025
723,KUCHING,1.483055556,110.3330556,27,2004,2014,11,0,152.3636364,284,2/12/2025
724,JOHORE BHARU/SENAI,1.633055556,103.6666667,40,2004,2008,5,0,197.72,264,2/12/2025
727,KOTA BHARU,6.166666667,102.2830556,5,2004,2014,11,0,186.7090909,283.6,2/12/2025
732,KUALA LUMPUR SUBANG,3.116666667,101.55,22,2004,2021,12,6,132.5666667,302.6,2/12/2025
838,NEW GUINEA                         MADANG W.O.,-5.216666667,145.7830556,5,1973,2003,30,1,136.3666667,198,2/12/2025
840,NEW GUINEA                         PORT MORESBY W.O.,-9.383055556,147.2166667,48,1970,2002,32,1,105.78125,305,2/12/2025
843,NEW GUINEA                         MOMOTE W.O.,-2.049722222,147.4166667,6,1968,2002,34,1,116.2058824,207,2/12/2025
1201,ARANYAPRATHET,13.7,102.5830556,49,1956,2014,56,3,81.94285714,142.8,2/12/2025
1231,CHANTHABURI,12.6,102.1166667,4,1956,2014,57,2,146.5473684,395,2/12/2025
1236,NAKHON PHANOM AGROMET,17.43305556,104.7830556,153,1953,2015,60,3,148.4383333,325.7,2/12/2025
1237,LOEI,17.45,101.7330556,254,1956,2014,57,2,90.49824561,163.8,2/12/2025
1255,NAKHON RATCHASIMA,14.96666667,102.0830556,188,1956,2014,57,2,85.69824561,143.7,2/12/2025
1261,NAKHON SAWAN,15.8,100.1666667,35,1956,2014,57,2,80.46491228,150.1,2/12/2025
1268,PHETCHABUN,16.43305556,101.15,116,1956,2014,57,2,82.39824561,156.4,2/12/2025
1401,SAMOA                           AASUFOU,-14.31666667,-170.7666667,408,1980,2010,13,18,224.7692308,342.6,2/12/2025
1402,SAMOA                           AFONO,-14.27,-170.65,183,1962,1996,11,24,187.1727273,254,2/12/2025
1403,SAMOA                           FAGA ALU RESERVOIR,-14.3,-170.7,250,1964,1970,7,0,216.9285714,279.4,2/12/2025
1405,SAMOA                           FALEASAO VILLAGE,-14.23,-169.52,5,1977,1997,9,12,93.78888889,181.6,2/12/2025
1406,SAMOA                           LEONE,-14.35,-170.78,6,1960,2009,44,6,153.7727273,271.3,2/12/2025
1408,SAMOA                           TAPUTIMU TUTUILA,-14.35,-170.77,15,1960,2009,44,6,153.7727273,271.3,2/12/2025
1409,SAMOA                           VAIPITO,-14.28,-170.7,140,1962,1996,11,24,187.1727273,254,2/12/2025
1410,KARUNJIE,-16.29166667,127.1955556,320,1941,1962,22,0,91.94545455,199.4,2/12/2025
1411,OOMBULGURRI,-15.18055556,127.8455556,2,1915,1967,36,17,96.25555556,212.1,2/12/2025
1412,PAGO MISSION,-14.13305556,126.7155556,5,1910,2015,80,26,115.305,303.5,2/12/2025
1413,KUNMUNYA,-15.41666667,124.7166667,47,1940,2009,45,25,162.0866667,310,2/12/2025
1414,WYNDHAM PORT,-15.46416667,128.1,20,1898,2015,115,3,92.10608696,317.5,2/12/2025
1415,WYNDHAM AERO,-15.51,128.1502778,4,1898,2015,115,3,89.16869565,317.5,2/12/2025
1416,TROUGHTON ISLAND,-13.75416667,126.1480556,6,1957,2010,22,32,111.1045455,313.4,2/12/2025
1417,MOUNT ELIZABETH OLD SITE,-16.30166667,126.1825,640,1960,1976,17,0,93.89411765,202.7,2/12/2025
1418,KURI BAY,-15.4875,124.5216667,12,1940,2009,45,25,162.0866667,310,2/12/2025
1419,THEDA,-14.78805556,126.4963889,210,1966,2015,44,6,105.3704545,269.2,2/12/2025
1421,MITCHELL PLATEAU,-14.7925,125.8255556,315,1968,1985,17,1,134.1117647,257.8,2/12/2025
1422,WYNDHAM,-15.48666667,128.1241667,11,1898,2015,115,3,90.45478261,317.5,2/12/2025
1424,STATION,-14.48555556,126.7663889,59,1953,2015,62,1,115.6370968,303.5,2/12/2025
1426,MOUNT ELIZABETH,-16.41805556,126.1025,546,1978,2015,38,0,89.1,192,2/12/2025
1427,KALUMBURU,-14.29638889,126.6452778,23,1910,2015,81,25,115.1185185,303.5,2/12/2025
1429,KALUMBURU MISSION,-14.29555556,126.6430556,23,1910,2015,81,25,115.1530864,303.5,2/12/2025
1430,WYNDHAM SIX MILE HOTEL,-15.49916667,128.1991667,180,1911,1915,5,0,156.26,250.2,2/12/2025
1431,EL QUESTRO,-16.00805556,127.9805556,90,1984,2012,13,16,74.53076923,125.2,2/12/2025
1432,ELLENBRAE,-15.95666667,127.0627778,300,1988,1996,8,1,77.425,117.4,2/12/2025
1433,DOONGAN,-15.37916667,126.3113889,385,1988,2015,27,1,103.2518519,243,2/12/2025
1434,STATION,-15.7025,126.3780556,370,1988,2015,23,5,96.62608696,218,2/12/2025
1435,DIGGERS REST,-15.63916667,128.0802778,14,1898,2015,115,3,89.55826087,317.5,2/12/2025
1436,HOME VALLEY,-15.72305556,127.8291667,10,1992,2006,3,12,156.8666667,251,2/12/2025
1437,KIMBERLEY COASTAL CAMP,-14.57805556,125.9130556,3,1998,2001,3,1,145.9,171,2/12/2025
1438,FARAWAY BAY,-13.96,127.1963889,60,1997,2009,6,7,162.3333333,323.4,2/12/2025
1441,ALICE DOWNS,-17.75666667,127.9380556,363,1907,1992,62,24,76.24516129,246.4,2/12/2025
1442,ARGYLE DOWNS,-16.50388889,128.9166667,120,1908,2010,97,6,75.83092784,165.6,2/12/2025
1443,BOHEMIA DOWNS,-18.88305556,126.2330556,251,1907,1958,33,19,60.37575758,165.1,2/12/2025
1444,BOW RIVER,-16.87,128.1830556,194,1909,2015,100,7,83.099,192.8,2/12/2025
1446,CARLTON HILL,-15.48638889,128.5341667,20,1907,2008,69,33,91.36956522,323.9,2/12/2025
1447,ASCOT,-15.5,128.25,183,1911,1915,5,0,156.26,250.2,2/12/2025
1448,STATION,-16.31666667,128.25,777,1921,1970,39,11,70.71794872,124.5,2/12/2025
1449,FLORA VALLEY OLD,-18.31666667,128,302,1907,2003,72,25,66.79722222,179.6,2/12/2025
1450,GIBB RIVER,-16.42027778,126.4405556,488,1922,2015,78,16,79.50384615,153.7,2/12/2025
1451,GORDON DOWNS,-18.75055556,128.5841667,354,1922,1992,55,16,64.34909091,222.5,2/12/2025
1452,OLD HALLS CREEK,-18.25166667,127.7816667,360,1899,2008,83,27,68.77710843,174,2/12/2025
1453,HALLS CREEK AIRPORT,-18.22916667,127.6630556,422,1911,2015,105,0,70.1152381,202.2,2/12/2025
1454,STATION,-15.69,128.6830556,40,1907,2015,98,11,84.39081633,214.4,2/12/2025
1455,STATION,-15.65416667,128.7091667,31,1907,2015,98,11,83.20204082,214.4,2/12/2025
1456,LAMBOO,-18.40805556,127.3541667,400,1921,1975,24,31,69.44166667,120.4,2/12/2025
1457,LISSADELL,-16.67416667,128.5530556,120,1907,2015,98,11,75.45918367,209,2/12/2025
1458,LOUISA DOWNS,-18.71055556,126.7105556,248,1914,2008,94,1,65.08617021,151,2/12/2025
1459,MABEL DOWNS,-17.17916667,128.1216667,254,1923,2002,61,19,75.60491803,168.1,2/12/2025
1460,STATION,-18.62527778,126.8616667,280,1914,2008,94,1,65.95638298,154.4,2/12/2025
1461,MOOLA BULLA,-18.18916667,127.5005556,430,1911,2014,104,0,75.05673077,202.2,2/12/2025
1462,MOUNT AMHURST,-18.38666667,126.9891667,300,1927,2012,43,43,63.1744186,133.4,2/12/2025
1463,MOUNT WINIFRED,-18.01555556,126.3030556,180,2003,2015,6,7,71,94.8,2/12/2025
1464,NICHOLSON,-18.03055556,128.8941667,380,1928,2008,55,26,66.52181818,176.8,2/12/2025
1465,ORD RIVER,-17.39944444,128.85,191,1907,1995,63,26,67.12222222,194,2/12/2025
1466,ROCKHOLE DOWNS,-18.36666667,127.5666667,464,1911,2014,104,0,73.42980769,202.2,2/12/2025
1467,RUBY PLAINS,-18.59555556,127.6416667,450,1907,2009,46,57,69.10652174,164.6,2/12/2025
1468,STATION,-16.35,128.0330556,296,1910,1944,32,3,84.58125,205.7,2/12/2025
1469,SPRING CREEK 1,-16.81805556,128.8655556,180,1928,2004,50,27,73.966,151,2/12/2025
1470,STURT CREEK,-19.1625,128.1630556,400,1907,2015,73,36,65.11232877,156.2,2/12/2025
1471,YULMBU,-17.29638889,126.915,450,1950,2004,34,21,69.62941176,184.2,2/12/2025
1472,TEXAS DOWNS,-17.01027778,128.4666667,250,1923,1991,55,14,75.71090909,188,2/12/2025
1473,WARMUN,-17.01555556,128.2175,203,1909,2015,100,7,82.606,187,2/12/2025
1474,TURNER RIVER,-17.8,128.3,297,1921,1965,30,15,68.68333333,194.6,2/12/2025
1476,GREENVALE 1,-17.14944444,127.75,485,1921,1940,19,1,71.57894737,172,2/12/2025
1478,VIOLET VALLEY,-17.3,128,342,1913,1940,22,6,84.86818182,220.2,2/12/2025
1479,KUNUNURRA,-15.78277778,128.7352778,47,1907,2015,98,11,83.80408163,214.4,2/12/2025
1481,SAUNDERS CREEK,-18.03305556,127.9830556,457,1965,1970,6,0,109.5666667,274.3,2/12/2025
1482,STATION,-17.385,128.9230556,170,1907,1995,63,26,67.02539683,194,2/12/2025
1483,GLENROY,-17.35916667,126.1080556,240,1959,1992,18,16,72.57222222,230.6,2/12/2025
1484,MOUNT KRAUSS,-18.33666667,126.1241667,160,2003,2012,3,7,66,82.8,2/12/2025
1485,LAKE ARGYLE RESORT,-16.11166667,128.7413889,163,1969,2015,34,13,83.16470588,202,2/12/2025
1487,BEDFORD DOWNS,-17.26305556,127.4616667,530,1970,1986,12,5,95.93333333,212.5,2/12/2025
1488,FLORA VALLEY 1,-18.29666667,128.4416667,380,1971,2002,21,11,70.3952381,156,2/12/2025
1489,SOPHIE DOWNS,-18.19416667,127.8141667,400,1899,2015,117,0,72.17264957,211.1,2/12/2025
1490,SPRINGVALE,-17.78416667,127.6852778,420,1922,2004,24,59,84.32916667,311.2,2/12/2025
1491,BILLILUNA,-19.55555556,127.6641667,305,1972,2002,10,21,71.95,134.8,2/12/2025
1492,TROPICAL FARM - ORD,-15.83666667,128.7391667,40,1907,2015,98,11,85.52857143,214.4,2/12/2025
1493,LANSDOWNE,-17.61305556,126.7441667,400,1954,1999,18,28,80.73888889,168.4,2/12/2025
1495,KUNUNURRA AERO,-15.78138889,128.71,44,1907,2015,98,11,83.61122449,214.4,2/12/2025
1499,KINGSTON REST,-16.03916667,128.415,69,1970,2002,21,12,91.47619048,396.2,2/12/2025
1500,STATION,-19.23527778,127.7691667,354,1971,1990,13,7,74.99230769,139,2/12/2025
1501,FOX RIVER,-18.42305556,128.0313889,310,1907,2003,72,25,66.79722222,179.6,2/12/2025
1503,MORNINGTON,-17.39305556,126.2280556,280,1959,1992,18,16,71.96111111,230.6,2/12/2025
1505,KUNUNURRA CHECKPOINT,-15.98138889,128.9988889,80,1983,2013,29,2,103.2344828,246.2,2/12/2025
1506,KACHANA,-16.44305556,127.7830556,270,1994,2002,8,1,115.15,160,2/12/2025
1509,BULKA,-19.03777778,126.0930556,190,1961,2009,41,8,78.91463415,182.9,2/12/2025
1510,BEAGLE BAY,-16.98055556,122.6666667,9,1907,2012,79,27,113.2253165,330.2,2/12/2025
1511,COUNTRY DOWNS,-17.27666667,122.5705556,153,1970,2013,32,12,115.878125,293.4,2/12/2025
1512,BROOME POST OFFICE,-17.95,122.25,19,1897,2015,118,1,110.5177966,355.6,2/12/2025
1513,CAPE LEVEQUE,-16.39555556,122.9277778,25,1918,2015,90,8,116.6244444,286.5,2/12/2025
1514,STATION,-17.57305556,125.065,120,1914,1992,30,49,89.54666667,204.5,2/12/2025
1515,FITZROY CROSSING COMP.,-18.19166667,125.5641667,114,1908,2015,108,0,76.08703704,218,2/12/2025
1516,DERBY POST OFFICE,-17.30416667,123.6291667,8,1907,2015,108,1,95.5962963,311.2,2/12/2025
1517,ELLENDALE,-17.92805556,124.8105556,120,1920,2005,35,51,88.72,174.2,2/12/2025
1518,JUBILEE DOWNS,-18.355,125.3030556,100,1907,2015,93,16,78.29354839,247,2/12/2025
1519,KIMBERLEY DOWNS,-17.38916667,124.3577778,90,1907,2006,82,18,91.05365854,260,2/12/2025
1520,LEOPOLD DOWNS,-17.75305556,125.3805556,220,1908,2008,68,33,80.42941176,226.1,2/12/2025
1521,LIVERINGA UPPER,-18.04805556,124.1727778,60,1907,2013,105,2,86.23809524,306.8,2/12/2025
1522,LULUIGUI,-18.145,124.0275,80,1907,2010,94,10,86.01808511,340.4,2/12/2025
1523,STATION,-18.29138889,125.5866667,150,1908,2015,108,0,74.85092593,190.5,2/12/2025
1524,MEDA,-17.36805556,123.9955556,75,1915,1996,72,10,92.98888889,268,2/12/2025
1525,MOUNT ANDERSON,-18.03555556,123.9280556,40,1914,2003,84,6,87.51190476,340.4,2/12/2025
1526,STATION,-17.05166667,125.7041667,270,1924,2005,72,10,80.425,222.4,2/12/2025
1527,MYROODAH,-18.12166667,124.2691667,60,1907,2013,104,3,83.23365385,287,2/12/2025
1528,NAPIER DOWNS,-17.33055556,124.8166667,80,1913,2009,67,30,92.6119403,255.8,2/12/2025
1529,NERRIMA,-18.5,124.3991667,95,1936,2006,13,58,74.10769231,151.9,2/12/2025
1530,NOONKANBAH,-18.4875,124.8230556,70,1907,1991,60,25,71.22666667,216.5,2/12/2025
1531,QUANBUN DOWNS,-18.38166667,125.2266667,100,1907,2015,93,16,77.6,239,2/12/2025
1532,ROEBUCK PLAINS,-17.93055556,122.4725,15,1897,2015,118,1,107.9966102,355.9,2/12/2025
1533,UDIALLA,-17.94638889,123.7380556,20,1914,2003,83,7,86.56746988,277.4,2/12/2025
1534,COCKATOO ISLAND,-16.09,123.5941667,13,1951,1982,22,10,145.2818182,284.5,2/12/2025
1535,YEEDA,-17.61527778,123.6480556,5,1907,2005,75,24,91.76133333,298.5,2/12/2025
1536,FOSSIL DOWNS,-18.13805556,125.7763889,120,1908,2015,107,1,76.36635514,207,2/12/2025
1537,ANNA PLAINS,-19.25305556,121.4855556,10,1922,2010,67,22,89.82835821,295.5,2/12/2025
1538,FRAZIER DOWNS,-18.79805556,121.7125,9,1907,2015,103,6,102.1145631,317.5,2/12/2025
1539,LOMBADINA MISSION,-16.51666667,122.8905556,20,1918,2015,90,8,117.8344444,326.4,2/12/2025
1540,DERBY AERO,-17.37055556,123.6605556,6,1907,2015,108,1,95.60185185,311.2,2/12/2025
1541,BLINA,-17.74666667,124.5280556,60,1939,2006,43,25,82.54651163,190,2/12/2025
1542,MUNJA,-16.39944444,124.95,109,1924,1947,16,8,85.8375,175.8,2/12/2025
1545,SILENT GROVE,-16.96666667,125.3,340,1960,1972,12,1,106.725,224.5,2/12/2025
1546,CAMBALLIN,-17.99027778,124.1916667,45,1907,2013,105,2,84.30285714,306.8,2/12/2025
1547,STATION,-17.6925,122.7127778,60,1963,2007,18,27,93.62222222,173,2/12/2025
1549,CHRISTMAS CREEK,-18.87888889,125.9205556,160,1961,2009,43,6,76.83255814,182.9,2/12/2025
1550,BROOKING SPRINGS,-18.11027778,125.6430556,110,1908,2015,108,0,76.71574074,218,2/12/2025
1551,CALANGADIE,-19.1,121.5,7,1922,2010,76,13,89.74078947,295.5,2/12/2025
1552,CHERRABUN 1,-18.48305556,125.3330556,91,1907,2015,93,16,77.60215054,247,2/12/2025
1553,DAMPIER DOWNS 1,-18.4,123.1,220,1930,1939,9,1,89.98888889,240.3,2/12/2025
1554,CHERRABUN 2,-18.91555556,125.5263889,151,1963,2008,31,15,67.90967742,175,2/12/2025
1555,ISADELL DOWNS,-16.89944444,125.7,417,1915,1926,11,1,77.58181818,237.2,2/12/2025
1557,MOUNT BARNETT,-16.73666667,125.9080556,401,1908,2012,38,67,86.04473684,208.3,2/12/2025
1558,STATION,-16.82055556,124.9155556,190,1926,2002,28,49,116.9035714,338,2/12/2025
1559,OBAGAMA,-16.7,123.9830556,6,1907,2009,39,64,117.125641,330.7,2/12/2025
1560,POINT TORMENT,-17.1,123.7,9,1907,1996,79,11,91.82531646,311.2,2/12/2025
1561,ROLLAH,-18.7,121.75,12,1907,2015,103,6,97.10582524,253,2/12/2025
1562,THANGOO,-18.17916667,122.3580556,5,1908,2010,54,49,113.837037,388,2/12/2025
1563,CYGNET BAY,-16.45138889,123.0080556,7,1918,2015,90,8,118.4111111,286.5,2/12/2025
1565,NITA DOWNS,-19.08555556,121.6763889,31,1923,2007,43,42,93.38139535,292,2/12/2025
1569,BEVERLEY SPRINGS,-16.715,125.4580556,400,1968,1995,26,2,87.96923077,202,2/12/2025
1572,PORT SMITH,-18.5175,121.8066667,10,1907,2015,100,9,100.46,255.6,2/12/2025
1573,DAMPIER DOWNS 2,-18.5075,123.4555556,120,1974,2009,30,6,89.13333333,270,2/12/2025
1574,KOOLAN ISLAND,-16.13055556,123.7763889,152,1975,1991,15,2,116.1133333,221.8,2/12/2025
1575,ONE ARM POINT,-16.45055556,123.0652778,2,1918,2015,90,8,118.9233333,286.5,2/12/2025
1576,KIMBOLTON,-16.68666667,123.8375,25,1907,2009,39,64,117.125641,330.7,2/12/2025
1577,YAKKAMUNGA,-17.93416667,123.4730556,50,1984,2006,23,0,87.46521739,205,2/12/2025
1581,CADJEBUT,-18.72666667,125.9875,200,1961,2004,38,6,81.55,182.9,2/12/2025
1582,SHELAMAR,-18.98916667,121.7205556,20,1914,2007,57,37,103.2245614,292,2/12/2025
1583,CURTIN AERO,-17.57305556,123.8216667,78,1992,2015,19,5,97.95789474,157.4,2/12/2025
1585,KIRBY GARDENS,-17.86666667,122.3630556,40,1897,2015,118,1,109.1601695,355.9,2/12/2025
1587,DERBY (MANNING RD),-17.34305556,123.6780556,10,1907,2015,108,1,96.02222222,311.2,2/12/2025
1589,WILLARE BRIDGE,-17.72777778,123.6541667,20,1907,2005,75,24,94.01866667,298.5,2/12/2025
1591,LARRAWA,-18.8375,126.5241667,260,1917,2008,59,33,65.89152542,151,2/12/2025
1592,DEBESA,-17.79805556,124.0766667,100,1996,2004,7,2,107.2571429,189,2/12/2025
1593,BEEFWOOD PARK,-18.98916667,125.8477778,200,1961,2007,39,8,78.64102564,182.9,2/12/2025
1595,FITZROY CROSSING AERO,-18.18138889,125.5616667,115,1908,2015,108,0,76.4537037,218,2/12/2025
1597,WEST ROEBUCK,-17.89638889,122.3116667,32,1897,2015,118,1,111.2050847,355.6,2/12/2025
1599,STATION,-17.95027778,124.2652778,55,1907,2013,104,3,84.425,306.8,2/12/2025
1603,MANDORA,-19.74166667,120.8430556,8,1907,2015,96,13,92.78854167,281.4,2/12/2025
1604,WIDJUP OUTCAMP,-19.5,121.3,8,1922,1948,18,9,78.36111111,179.8,2/12/2025
1605,CONDON,-20,119.4,0,1897,1926,29,1,72.69655172,174.2,2/12/2025
1606,WALLAL DOWNS,-19.77888889,120.6416667,9,1907,2015,96,13,91.78229167,301,2/12/2025
1607,ADELAIDE RIVER RAILWAY,-13.24666667,131.1116667,153,1935,1999,38,27,107.5605263,208.4,2/12/2025
1608,NGUIU,-11.765,130.6280556,12,1913,1988,66,10,130.5015152,342.1,2/12/2025
1609,BERRIMAH,-12.45,130.9666667,330,1949,1965,13,4,120.3153846,191.8,2/12/2025
1611,BROCKS CREEK,-13.5,131.4,77,1898,1969,42,30,100.4666667,364,2/12/2025
1613,STATION,-13.53305556,131.6994444,115,1891,1971,50,31,96.42,174.5,2/12/2025
1614,CAPE DON 1,-11.31666667,131.7666667,19,1918,2014,86,11,115.7604651,344.9,2/12/2025
1615,CHANNEL ISLAND,-12.55416667,130.8675,10,1872,2015,144,0,128.0263889,330,2/12/2025
1617,MINJILANG,-11.14555556,132.5683333,35,1952,1985,30,4,117.47,297.9,2/12/2025
1618,GERIATRIC PARK,-12.81,130.4575,23,1990,2014,19,6,147.3052632,345.6,2/12/2025
1620,DARWIN AIRPORT,-12.42388889,130.8925,30,1872,2015,144,0,130.5743056,367.6,2/12/2025
1621,DARWIN POST OFFICE,-12.4,130.8,24,1872,2015,144,0,125.1263889,353,2/12/2025
1622,STATION,-12.48666667,130.9,30,1872,2015,144,0,126.4152778,330,2/12/2025
1623,DARWIN LOCO WORKS,-12.43916667,130.8416667,15,1872,2015,144,0,131.0715278,313.6,2/12/2025
1626,BULEY ROCKHOLE,-13.11333333,130.7980556,82,1913,2003,32,59,109.159375,174,2/12/2025
1627,DARWIN RIVER RIDGE,-12.81305556,130.9875,100,1969,2015,42,5,109.5238095,238.8,2/12/2025
1628,RUM JUNGLE,-13.48305556,131,60,1957,1970,14,0,116.6428571,166.6,2/12/2025
1629,STATION,-12.65,131.2830556,3,1921,2015,91,4,105.6428571,239.5,2/12/2025
1630,KOOLPINYAH,-12.38888889,131.1766667,30,1913,2015,101,2,123.2534653,281.3,2/12/2025
1631,MANTON DAM,-12.83805556,131.1305556,41,1913,2015,74,29,111.2378378,245,2/12/2025
1635,MIDDLE POINT AWS,-12.605,131.2983333,14,1921,2015,91,4,105.9043956,242.3,2/12/2025
1636,OENPELLI,-12.32583333,133.0580556,7,1912,2012,90,11,98.10333333,245.1,2/12/2025
1648,MARRAKAI 1,-12.7,131.3,30,1886,2015,91,39,103.0571429,239.5,2/12/2025
1649,BATCHELOR FARM,-13,131,30,1913,2005,37,56,105.3243243,220.2,2/12/2025
1652,STATION,-12.65,131.2330556,38,1886,2015,93,37,103.6408602,239.5,2/12/2025
1653,EVA VALLEY 1,-13.13805556,131.0016667,100,1913,2010,63,35,108.0174603,244,2/12/2025
1656,HAYES CREEK,-13.58305556,131.4575,152,1957,2002,27,19,113.6740741,230.2,2/12/2025
1660,NOONAMAH,-12.63666667,131.0730556,35,1933,2015,83,0,111.239759,267,2/12/2025
1661,MOLINE,-13.7,132.15,152,1957,2008,23,29,98.52608696,185.4,2/12/2025
1662,BEATRICE HILL,-12.64916667,131.3180556,77,1886,2005,52,68,100.6134615,213.9,2/12/2025
1663,PICKERTARAMOOR,-11.76527778,130.8880556,70,1964,1982,13,6,118.3538462,214,2/12/2025
1665,MIDDLE POINT,-12.57805556,131.3141667,10,1921,2015,87,8,102.7149425,242.3,2/12/2025
1666,EL SHARANA,-13.525,132.5138889,183,1958,1989,19,13,97.57368421,147.3,2/12/2025
1667,ADELAIDE RIVER POST OFFICE,-13.23694444,131.1041667,53,1913,2010,51,47,101.9882353,244,2/12/2025
1672,MILIKAPITI,-11.42555556,130.6755556,5,1964,1978,11,4,97.99090909,173.7,2/12/2025
1677,TORTILLA FLATS,-13.1,131.2330556,23,1957,2010,36,18,103.4583333,244,2/12/2025
1678,NA RAILWAY 22 MILE,-12.56166667,131.0716667,38,1913,2015,101,2,118.8534653,371.8,2/12/2025
1679,NIGHTCLIFF POOL,-12.37805556,130.8466667,7,1872,2015,144,0,123.8868056,353,2/12/2025
1680,LAKE FINNISS FARM,-12.35555556,131.4930556,6,1960,1987,2,26,78.7,86.4,2/12/2025
1681,BERRIMAH RESEARCH FARM,-12.44277778,130.9325,35,1872,2015,144,0,130.2347222,296.4,2/12/2025
1683,BURNSIDE,-13.46666667,131.4166667,100,1898,1969,42,30,103.1785714,364,2/12/2025
1684,COSMOPOLITAN GOLD MINE,-13.85,131.8,230,1884,2010,99,28,100.9565657,269.7,2/12/2025
1685,POINT CHARLES LIGHTHOUSE,-12.4,130.6,15,1872,2015,115,29,126.8634783,296.4,2/12/2025
1686,STAPLETON,-13.18305556,131,86,1913,2010,63,35,104.8111111,244,2/12/2025
1688,BELYUEN,-12.53777778,130.6980556,25,1872,2015,144,0,128.3277778,367,2/12/2025
1692,BATCHELOR POST OFFICE,-13.05,131.03,104,1913,2015,83,20,105.4939759,285,2/12/2025
1694,PIRLANGIMPI,-11.40166667,130.4216667,18,1964,2014,35,16,130.1714286,336.9,2/12/2025
1700,HOWARD SPRINGS,-12.45555556,131.0502778,34,1884,2015,120,12,124.1891667,281.3,2/12/2025
1702,MILTON SPRINGS,-13.21666667,131,152,1935,1999,38,27,107,209.3,2/12/2025
1703,BLACK POINT,-11.15333333,132.1427778,5,1972,2015,41,3,124.4756098,286,2/12/2025
1707,MIDDLE POINT NAVY,-12.61,131.29,15,1921,2015,91,4,105.9098901,242.3,2/12/2025
1710,COCONUT GROVE,-12.39888889,130.8505556,5,1872,2015,144,0,124.7590278,367.6,2/12/2025
1711,DARWIN BOTANIC GARDENS,-12.43916667,130.8375,15,1872,2015,144,0,130.8479167,313.6,2/12/2025
1712,JINGILI,-12.39305556,130.8713889,10,1872,2015,144,0,128.5680556,367.6,2/12/2025
1713,MUDGINBERRI,-12.59305556,132.88,31,1964,2015,48,4,113.7729167,393.4,2/12/2025
1715,STOKES HILL,-12.46444444,130.8491667,41,1872,2015,144,0,125.9569444,296.4,2/12/2025
1716,MENELING,-13.05305556,130.995,84,1913,2015,75,28,108.536,244,2/12/2025
1717,COONAWARRA NAVY,-12.43305556,130.905,34,1872,2015,144,0,130.1388889,367.6,2/12/2025
1718,LARRAKEYAH,-12.45805556,130.8280556,31,1872,2015,144,0,127.1979167,296.4,2/12/2025
1720,ELEVEN MILE RAAF,-12.45055556,130.9575,35,1872,2015,144,0,129.6159722,309,2/12/2025
1721,BAN BAN SPRINGS,-13.37833333,131.5041667,180,1957,2002,23,23,112.9434783,255,2/12/2025
1722,YARRAMAN,-13.01666667,130.9494444,40,1913,2006,40,54,103.8175,190.5,2/12/2025
1723,LEE POINT RAAF,-12.36,130.8880556,8,1872,2015,144,0,131.0076389,344.2,2/12/2025
1724,MUNMALARY,-12.47666667,132.5,40,1968,2008,3,38,147.0666667,186.2,2/12/2025
1725,MOUNT RINGWOOD,-13.12666667,131.3725,20,1961,1992,20,12,99.685,236,2/12/2025
1727,GOODPARLA,-13.46805556,132.2730556,92,1969,1985,4,13,90.775,114,2/12/2025
1728,MURGANELLA,-11.54666667,132.9252778,15,1967,2001,16,19,127.63125,241.3,2/12/2025
1729,DOUGLAS,-13.63305556,131.4494444,60,1898,2007,67,43,108.4462687,364,2/12/2025
1731,DARWIN RIVER DAM,-12.83194444,130.9708333,100,1961,2015,54,1,113.0962963,285,2/12/2025
1732,ADELAIDE RIVER 67 MILE,-13.16666667,131.1,170,1935,1973,25,14,100.084,192.5,2/12/2025
1742,JABIRU AIRPORT,-12.65916667,132.8938889,27,1964,2015,48,4,111.125,393.4,2/12/2025
1743,COX PENINSULA TRANSMITTER,-12.41194444,130.6263889,17,1872,2015,137,7,130.8313869,367,2/12/2025
1746,THE PINES,-13.75777778,131.5738889,100,1966,2007,29,13,122.8896552,223,2/12/2025
1747,EMERALD SPRINGS,-13.63138889,131.6305556,198,1957,2000,21,23,98.1952381,173,2/12/2025
1749,JABIRU COUNCIL,-12.66805556,132.8355556,31,1964,2015,48,4,109.7104167,393.4,2/12/2025
1750,LAMBELL'S LAGOON,-12.575,131.2666667,21,1913,2015,102,1,102.9686275,242.3,2/12/2025
1751,PALMERSTON,-12.47166667,130.9919444,41,1872,2015,144,0,127.5090278,300,2/12/2025
1752,ANNIE RIVER,-12.77055556,130.7455556,25,1986,1994,8,1,91.275,109,2/12/2025
1753,GUNN POINT PRISON FARM,-12.25166667,131.0427778,20,1913,2015,101,2,130.9158416,365,2/12/2025
1754,ANULA,-12.39305556,130.8841667,20,1872,2015,144,0,131.1236111,344.2,2/12/2025
1755,BERRY SPRINGS RANGERS,-12.69916667,131,10,1933,2015,75,8,119.2373333,327,2/12/2025
1756,CASUARINA,-12.36166667,130.8791667,15,1872,2015,144,0,126.5125,344.2,2/12/2025
1757,DARWIN GOVERNMENT HOUSE,-12.47,130.8405556,25,1872,2015,144,0,126.2486111,296.4,2/12/2025
1758,PARAP,-12.43305556,130.8405556,20,1872,2015,144,0,129.9722222,296.4,2/12/2025
1759,MCMINNS LAGOON,-12.54888889,131.0791667,35,1913,2015,101,2,118.3940594,371.8,2/12/2025
1761,MONGREL DOWNS,-12.75416667,130.8752778,20,1933,2015,51,32,122.0098039,260,2/12/2025
1762,ELIZABETH VALLEY,-12.63694444,131.0758333,36,1921,2015,94,1,109.7861702,267,2/12/2025
1763,MILLAR,-12.57166667,131.07,36,1913,2015,101,2,116.8257426,371.8,2/12/2025
1764,WANDIE CREEK,-13.80583333,132.1966667,179,1957,2008,23,29,98.52608696,185.4,2/12/2025
1765,STRANGWAYS,-12.55805556,131.15,44,1886,2015,104,26,114.1576923,262.9,2/12/2025
1766,HUMPTY DOO COLLARD ROAD,-12.57638889,131.0827778,30,1913,2015,101,2,120.180198,371.8,2/12/2025
1767,KARAMA,-12.38833333,130.9244444,16,1872,2015,144,0,131.4534722,296.4,2/12/2025
1772,NORTHLAKES,-12.40166667,130.8955556,30,1872,2015,144,0,132.2340278,367.6,2/12/2025
1774,WAGAIT BEACH,-12.43416667,130.7488889,30,1872,2015,144,0,125.2444444,367,2/12/2025
1775,LABELLE DOWNS,-13.11277778,130.4933333,45,1987,1987,1,0,140,140,2/12/2025
1776,LAKE BENNETT,-12.96083333,131.1666667,55,1913,2012,61,39,116.4819672,245,2/12/2025
1777,DUM IN MIRRIE,-12.63805556,130.37,6,1990,2014,19,6,135.6631579,345.6,2/12/2025
1780,ACACIA HILLS,-12.76416667,131.1591667,20,1921,2015,90,5,112.3422222,245,2/12/2025
1781,CAPE DON 2,-11.30805556,131.7647222,19,1918,2014,86,11,115.7604651,344.9,2/12/2025
1782,LEANYER,-12.37805556,130.9055556,10,1872,2015,144,0,132.2048611,344.2,2/12/2025
1785,SEVEN SPIRIT BAY,-11.20333333,132.0525,3,1972,2015,41,3,119.9707317,261.4,2/12/2025
1787,MARY RIVER RANGERS,-13.55444444,132.2730556,220,1989,2007,13,6,126.4384615,245,2/12/2025
1788,SOUTH ALLIGATOR RESORT,-12.67555556,132.4802778,10,1968,2008,3,38,147.0666667,186.2,2/12/2025
1789,CHANNEL POINT,-13.16666667,130.1225,3,1991,2015,21,4,143.1666667,252.4,2/12/2025
1790,POINT STUART AWS,-12.24305556,131.8780556,1,1994,2009,13,3,116.1230769,252,2/12/2025
1792,COOINDA AERODROME,-12.90333333,132.5252778,40,1996,2006,3,8,91.66666667,119,2/12/2025
1793,CORROBOREE PARK,-12.76194444,131.5005556,30,1886,2000,42,73,99.41666667,188.7,2/12/2025
1794,WILDMAN RANGERS 1,-12.65805556,131.7125,30,1963,2008,21,25,121.8809524,328,2/12/2025
1795,SHOAL BAY,-12.36,130.9827778,6,1872,2015,144,0,130.7125,350,2/12/2025
1796,EAST ARM,-12.48166667,130.8977778,10,1872,2015,144,0,127.9958333,330,2/12/2025
1797,LUDMILLA,-12.42555556,130.8527778,2,1872,2015,144,0,129.3222222,296.4,2/12/2025
1798,POINT STUART,-12.58555556,131.7605556,25,1963,2008,21,25,121.2047619,328,2/12/2025
1799,TERRITORY WILDLIFE PARK,-12.71166667,130.9888889,10,1933,2015,75,8,119.432,327,2/12/2025
1800,CSIRO BERRIMAH,-12.4125,130.9197222,30,1872,2015,144,0,130.4659722,374,2/12/2025
1801,THORAK CEMETERY,-12.41166667,130.9666667,25,1872,2015,144,0,130.0416667,300,2/12/2025
1803,PELL AIRSTRIP,-13.13805556,131.1091667,70,1913,2010,60,38,103.195,244,2/12/2025
1804,HUMPTY DOO EVAN ROAD,-12.54416667,131.1475,30,1886,2015,104,26,115.1153846,262.9,2/12/2025
1805,NIGHTCLIFF SPORTS CLUB,-12.38305556,130.85,16,1872,2015,144,0,125.8097222,367.6,2/12/2025
1806,BORDER STORE,-12.42416667,132.9630556,11,1912,2012,90,11,101.1255556,245.1,2/12/2025
1807,MCCLUER ISLAND,-11.04666667,132.9788889,1,1995,2015,11,10,137.7818182,280.8,2/12/2025
1808,WILDMAN RANGERS 2,-12.71638889,131.8205556,55,1963,2008,16,30,131.36875,328,2/12/2025
1809,WILDMAN RIVER PLANTATIONS,-12.64138889,131.8847222,30,1963,2008,16,30,130.7875,328,2/12/2025
1810,DUM IN MIRRIE AWS,-12.635,130.3725,4,1990,2014,19,6,140.1684211,345.6,2/12/2025
1811,MARRAKAI 2,-12.61138889,131.6230556,2,1963,2004,13,29,130.0384615,328,2/12/2025
1812,WALKER CREEK,-13.08055556,130.6925,140,1994,2015,12,10,139.5333333,262,2/12/2025
1814,CARMOR PLAINS,-12.40305556,131.9813889,7,1994,2009,13,3,141.0769231,268,2/12/2025
1815,CLARAVALE 1,-14.09916667,131.8016667,180,1994,2008,4,11,123.25,168,2/12/2025
1818,DARWIN HOSPITAL,-12.355,130.8855556,20,1872,2015,144,0,127.9965278,344.2,2/12/2025
1821,NGUIU FARM,-11.77805556,130.5577778,63,,,0,0,,,2/12/2025
1822,CHARLES DARWIN UNIVERSITY,-12.37194444,130.8663889,10,1872,2015,144,0,125.7222222,344.2,2/12/2025
1824,MANINGRIDA,-12.04805556,134.2258333,11,1964,2005,33,9,120.7818182,248.2,2/12/2025
1825,WARRUWI,-11.65,133.3791667,19,1920,2015,78,18,109.7551282,266.2,2/12/2025
1826,MILINGIMBI,-12.12388889,134.9077778,4,1925,2015,63,28,115.0412698,264.9,2/12/2025
1827,RAMINGINING,-12.33388889,134.9291667,25,1925,2002,58,20,117.4551724,264.9,2/12/2025
1828,MILINGIMBI AWS,-12.09305556,134.8916667,15,1925,2015,54,37,115.0518519,264.9,2/12/2025
1832,YIRRKALA TROPICAL GARDENS,-12.25555556,136.8977778,7,1936,2015,76,4,128.3223684,284.4,2/12/2025
1833,YIRRKALA MISSION,-12.25,136.8830556,9,1936,2015,76,4,128.3223684,284.4,2/12/2025
1834,UMBAKUMBA,-13.83305556,136.8330556,12,1939,2005,33,34,75.69090909,226.6,2/12/2025
1835,GALIWINKU,-12.02777778,135.5644444,18,1944,2014,65,6,111.3630769,344.2,2/12/2025
1836,NUMBULWAR,-14.27805556,135.7419444,10,1963,1985,16,7,130.95625,239,2/12/2025
1837,ANGURUGU,-13.98305556,136.4330556,14,1922,2015,78,16,119.0166667,363,2/12/2025
1838,GOVE AIRPORT,-12.27388889,136.8202778,52,1936,2015,76,4,122.9776316,268.8,2/12/2025
1839,ALCAN MINESITE,-12.26055556,136.8388889,20,1936,2015,76,4,121.7578947,268.8,2/12/2025
1840,BARTALUMBA BAY,-13.83305556,136.4416667,5,1922,2015,78,16,120.3910256,363,2/12/2025
1841,GROOTE EYLANDT AIRPORT,-13.97555556,136.4613889,14,1922,2015,78,16,119.0166667,363,2/12/2025
1842,NHULUNBUY DTW,-12.19388889,136.7633333,20,1936,2015,76,4,122.6644737,268.8,2/12/2025
1845,LAKE EVELLA,-12.50083333,135.8,70,2003,2010,4,4,102.75,135,2/12/2025
1846,BICKERTON ISLAND,-13.78166667,136.1952778,6,1995,1997,3,0,101.9666667,114,2/12/2025
1847,NGAYAWILI,-11.99666667,135.5722222,8,1944,2014,65,6,110.7907692,344.2,2/12/2025
1848,GROOTE EYLANDT AIRPORT AWS,-13.97416667,136.4630556,14,1922,2015,78,16,119.0166667,363,2/12/2025
1849,CAPE WILBERFORCE,-11.91666667,136.5316667,10,2002,2004,2,1,81.5,123,2/12/2025
1852,WONGALARA,-14.13916667,134.4741667,60,2000,2002,3,0,103.6,171.4,2/12/2025
1854,MOROAK,-14.82277778,133.7008333,75,2002,2002,1,0,30,30,2/12/2025
1856,KALALA,-16.18888889,133.3280556,304,1969,2004,6,30,57.8,72,2/12/2025
1858,NGUKURR,-14.72916667,134.7269444,34,1895,2010,97,19,98.22164948,271.5,2/12/2025
1859,MATARANKA HOMESTEAD RESORT,-14.92277778,133.1316667,150,1918,2011,63,31,98.00793651,247.1,2/12/2025
1860,DUNMARA ROADHOUSE,-16.67916667,133.4130556,229,1964,2001,7,31,122.7857143,169.7,2/12/2025
1861,LARRIMAH,-15.57444444,133.2133333,180,1935,2011,75,2,92.4,233,2/12/2025
1862,MARYFIELD,-15.8325,133.4005556,190,1965,2006,12,30,88.76666667,177.5,2/12/2025
1863,HODGSON DOWNS,-15.22027778,134.0816667,52,1901,1990,14,76,100.1571429,254.5,2/12/2025
1864,BAMYILI,-14.51666667,132.8630556,61,1966,1981,8,8,105.1125,125.4,2/12/2025
1865,URAPUNGA,-14.71027778,134.5666667,37,1895,2010,97,19,88.39381443,225.3,2/12/2025
1866,ROPER VALLEY,-14.92888889,134.0077778,69,1963,2008,20,26,109.01,251.2,2/12/2025
1867,DALY WATERS,-16.25277778,133.37,212,1880,2012,111,22,75.82342342,180.1,2/12/2025
1869,ROPER RIVER POLICE,-14.71666667,134.505,32,1895,2010,97,19,89.1814433,225.3,2/12/2025
1870,NUTWOOD DOWNS,-15.80833333,134.1475,183,1936,2004,61,8,86.60327869,226.1,2/12/2025
1871,BIRDUM,-15.6,133.25,180,1935,2011,75,2,92.4,233,2/12/2025
1872,ELSEY,-14.95694444,133.3294444,107,1918,2009,59,33,101.3288136,294.6,2/12/2025
1873,BESWICK,-14.555,133.1158333,150,1964,1973,8,2,91.6,172.7,2/12/2025
1874,MOUNTAIN VALLEY,-14.08305556,133.8105556,240,1962,1974,12,1,78.29166667,161.8,2/12/2025
1875,DALY WATERS AWS,-16.26305556,133.3780556,210,1880,2012,111,22,76.02702703,180.1,2/12/2025
1877,TANUMBIRINI,-16.45444444,134.6502778,165,1975,2007,28,5,74.76428571,162.2,2/12/2025
1881,ROPER BAR STORE,-14.73555556,134.5288889,18,1895,2010,97,19,89.1814433,225.3,2/12/2025
1884,HIDDEN VALLEY,-16.54805556,132.9030556,198,1966,2003,16,22,77.075,127.8,2/12/2025
1885,MAINORU,-14.04055556,134.0941667,99,1970,1998,11,18,77.92727273,112,2/12/2025
1886,GORRIE,-15.52666667,132.6530556,175,1986,2009,15,9,79.22,135.2,2/12/2025
1887,GILNOCKIE,-15.91777778,132.3830556,210,1990,2008,13,6,82.98461538,135.6,2/12/2025
1888,BULMAN,-13.66416667,134.3305556,200,,,0,0,,,2/12/2025
1889,MATARANKA COUNCIL,-14.92388889,133.0619444,140,1918,2011,57,37,97.70701754,247.1,2/12/2025
1890,STATION,-14.83805556,132.9677778,145,1918,2011,57,37,97.25087719,180.3,2/12/2025
1893,LIMMEN RIVER,-15.26527778,135.5013889,10,1996,1998,3,0,74.93333333,96,2/12/2025
1894,FLYING FOX,-14.85277778,134.0355556,58,1963,2008,20,26,109.01,251.2,2/12/2025
1895,LAKEFIELD,-15.27083333,132.9125,160,2005,2009,4,1,104.4,150,2/12/2025
1903,BALBIRINI,-16.73138889,135.7380556,88,1973,2004,27,5,88.48518519,191.2,2/12/2025
1904,BAUHINIA DOWNS,-16.21555556,135.4680556,104,1964,1998,30,5,96.96333333,215,2/12/2025
1905,MALLAPUNYAH,-16.97555556,135.8130556,195,1964,2014,42,9,98.81666667,282,2/12/2025
1906,CENTRE ISLAND,-15.7425,136.8191667,12,1969,2012,34,10,145.4794118,362,2/12/2025
1907,MCARTHUR RIVER MINE,-16.44194444,136.0755556,40,1969,2015,33,14,89.53939394,173.4,2/12/2025
1908,CALVERT HILLS,-17.23138889,137.3305556,183,1969,2009,28,13,94.14642857,198,2/12/2025
1909,ROBINSON RIVER,-16.76166667,136.9788889,65,1968,1976,6,3,140.5833333,191,2/12/2025
1910,WOLLOGORANG,-17.21166667,137.9458333,60,1970,2014,31,14,122.3322581,341,2/12/2025
1911,BING BONG,-15.62277778,136.3533333,6,1965,2013,31,18,115.0419355,233,2/12/2025
1913,BORROLOOLA,-16.06666667,136.3,17,1891,1999,69,40,112.3507246,355.6,2/12/2025
1914,VANDERLIN ISLAND MIMETS,-15.83305556,137.05,4,1965,1972,8,0,168.1625,262.4,2/12/2025
1915,HODGSON RIVER,-15.57555556,134.095,110,1975,2007,33,0,90.33939394,155.4,2/12/2025
1916,GALLIPOLI,-19.13805556,137.8730556,276,1968,2001,20,14,63.78,101.9,2/12/2025
1918,STATION,-16.65916667,135.8516667,61,1973,2004,27,5,91.41481481,191.2,2/12/2025
1919,BROADMERE,-16.4475,135.2166667,152,1981,2004,16,8,74.0375,120,2/12/2025
1920,REDBANK MINE,-17.19138889,137.7427778,195,1977,2014,23,15,115.7652174,269.2,2/12/2025
1921,NATHAN RIVER,-15.57888889,135.4266667,30,1987,2003,10,7,115.02,340.3,2/12/2025
1922,BENMARA,-17.91777778,136.905,229,1969,2008,36,4,76.56666667,207,2/12/2025
1924,CAPE CRAWFORD,-16.68305556,135.7266667,67,1973,2004,27,5,90.74814815,191.2,2/12/2025
1926,BORROLOOLA POLICE,-16.05388889,136.3041667,30,1891,1999,69,40,112.3507246,355.6,2/12/2025
1929,BING BONG PORT,-15.62916667,136.3880556,4,1965,2013,31,18,116.2806452,233,2/12/2025
1930,UPPER WATERHOUSE RIVER,-14.10527778,133.3416667,262,2005,2015,9,2,96.48888889,182.4,2/12/2025
1932,KILLARNEY 1,-16.25638889,131.7530556,237,1968,2005,9,29,75.72222222,153.6,2/12/2025
1933,HUMBERT RIVER,-16.48305556,130.6166667,105,1963,1974,8,4,97.4875,148.1,2/12/2025
1934,CAMFIELD,-17.03638889,131.2938889,186,1968,2015,42,6,74.37380952,161,2/12/2025
1935,LEGUNE,-15.20805556,129.4497222,26,1957,2008,44,8,114.7113636,313.7,2/12/2025
1936,FITZROY,-15.56666667,130.9330556,34,1943,2004,26,36,92.86153846,281.9,2/12/2025
1937,BIRRIMBA,-16.41527778,132.0855556,209,1971,1990,7,13,94.2,134.4,2/12/2025
1938,MONTEJINNI,-16.665,131.7641667,174,1957,2009,37,16,79.91891892,206,2/12/2025
1939,TANAMI MINE,-19.96527778,129.7130556,437,1988,2004,17,0,62.27058824,124.2,2/12/2025
1940,BULLO RIVER,-15.46666667,129.7675,6,1965,1994,12,18,91.375,190,2/12/2025
1941,VICTORIA RIVER DEPOT,-15.41666667,130.6994444,30,1909,1930,20,2,77.255,182.1,2/12/2025
1942,MISTAKE CREEK,-17.08666667,129.0530556,157,1960,1982,15,8,68.03333333,109.2,2/12/2025
1943,COOLIBAH,-15.55166667,130.9580556,40,1943,2004,26,36,93.95384615,281.9,2/12/2025
1944,AUVERGNE,-15.68416667,130.0094444,18,1938,2009,62,10,95.23870968,284.5,2/12/2025
1945,WATERLOO,-16.63416667,129.3280556,140,1916,2015,75,25,83.75466667,196,2/12/2025
1946,OLD DELAMERE,-15.73666667,131.5341667,102,1885,2012,24,104,80.36666667,160.5,2/12/2025
1947,BRADSHAW HOMESTEAD,-15.34805556,130.2758333,26,1899,2011,43,70,92.44186047,205,2/12/2025
1948,TOP SPRINGS,-16.63166667,131.8330556,175,1957,2009,37,16,80.15675676,206,2/12/2025
1949,AMANBIDJI,-16.43166667,129.6155556,69,1951,1994,35,9,72.42571429,108,2/12/2025
1950,NEWRY,-16.04944444,129.2644444,101,1910,2008,78,21,89.73205128,262.6,2/12/2025
1951,ROSEWOOD,-16.45805556,129.0055556,137,1908,2010,97,6,77.64948454,157,2/12/2025
1952,TIMBER CREEK POLICE,-15.64666667,130.4755556,14,1921,2014,82,12,95.83536585,346.7,2/12/2025
1953,LIMBUNYA,-17.22916667,129.8869444,380,1924,2002,64,15,80.0453125,197,2/12/2025
1954,BULLITA,-16.11916667,130.4280556,160,1917,2010,20,74,95.58,214,2/12/2025
1955,VICTORIA RIVER DOWNS,-16.40277778,131.0141667,89,1886,2015,113,17,79.45575221,222.3,2/12/2025
1958,LAJAMANU,-18.3325,130.6355556,316,1952,2014,43,20,86.12325581,203,2/12/2025
1959,CATTLE CREEK,-17.59638889,131.5441667,189,1961,1998,14,24,76.24285714,171,2/12/2025
1960,RIVEREN,-17.90388889,130.2266667,323,1970,2009,38,2,82.86052632,276,2/12/2025
1961,WAVE HILL POST OFFICE,-17.38305556,130.8666667,200,1917,2008,58,34,73.2862069,179.1,2/12/2025
1962,KALKARINGI POLICE,-17.44638889,130.8388889,167,1917,2008,58,34,73.26034483,179.1,2/12/2025
1963,STATION,-17.48305556,130.9494444,213,1925,2015,88,3,76.99772727,179.1,2/12/2025
1964,KIRKIMBIE,-17.73305556,129.24,379,1968,1988,12,9,68.54166667,165.1,2/12/2025
1965,INVERWAY,-17.84805556,129.6355556,403,1956,2007,39,13,70,255,2/12/2025
1967,DELAMERE,-15.62805556,131.6355556,153,1972,2001,16,14,91.49375,212.2,2/12/2025
1968,WAVE HILL,-17.38666667,131.1163889,196,1964,2015,49,3,82.92653061,205,2/12/2025
1969,PIGEON HOLE COMMUNITY,-16.81388889,131.2191667,110,1995,1999,4,1,66.85,83.6,2/12/2025
1970,STATION,-17.45,130.8,152,1917,2008,55,37,73.65454545,179.1,2/12/2025
1972,KIDMAN SPRINGS,-16.1175,130.9555556,100,1970,2011,40,2,83.4325,261.4,2/12/2025
1973,VICTORIA RIVER ROADHOUSE,-15.61916667,131.1280556,38,1943,2004,26,36,90.44230769,281.9,2/12/2025
1975,TIMBER CREEK,-15.66138889,130.4805556,20,1921,2014,82,12,95.74878049,346.7,2/12/2025
1977,BUNDA,-17.99722222,129.3455556,400,1985,2009,21,4,86.80952381,250,2/12/2025
1978,KEEP RIVER RANGERS,-15.97,129.0405556,100,1983,2013,29,2,98.01724138,207.4,2/12/2025
1980,NELSON SPRINGS,-17.33527778,129.2891667,290,1994,2009,13,3,83.92307692,143.4,2/12/2025
1981,BIRRINDUDU,-18.39,129.4294444,370,1992,2009,7,11,67.31428571,118.2,2/12/2025
1982,SUPLEJACK,-19.27944444,129.9416667,452,1982,2009,26,2,65.22307692,243,2/12/2025
1983,TOP SPRINGS ROADHOUSE,-16.54305556,131.7963889,200,1957,2009,37,16,79.62162162,206,2/12/2025
1984,TANAMI MINE BOREFIELDS,-19.87638889,129.6266667,410,1988,2004,17,0,74.17058824,209,2/12/2025
1986,SPIRIT HILLS,-15.44166667,129.0191667,25,1977,1994,18,0,91.59444444,166,2/12/2025
1987,MOOLOOLOO,-16.35388889,131.5141667,120,1989,2009,18,3,78.12222222,140.4,2/12/2025
1988,MOUNT SANFORD,-16.98166667,130.5594444,220,1986,2002,8,9,75.4375,115.5,2/12/2025
1992,DRY RIVER,-15.24388889,132.155,180,1969,2010,20,22,81.705,155.4,2/12/2025
1993,DOUGLAS RIVER,-13.83416667,131.1866667,43,1936,2012,65,12,107.3153846,214.4,2/12/2025
1994,KATHERINE COUNCIL,-14.45888889,132.2566667,107,1885,2015,128,3,96.60546875,233.7,2/12/2025
1995,KATHERINE AVIATION MUSEUM,-14.44333333,132.2733333,108,1885,2015,128,3,95.84375,233.7,2/12/2025
1996,KATHERINE EXP. FARM,-14.48305556,132.25,120,1885,2015,128,3,96.51953125,233.7,2/12/2025
1997,PORT KEATS POLICE,-14.24027778,129.5213889,11,1938,2014,32,45,135.840625,224.5,2/12/2025
1999,LITCHFIELD,-13.4275,130.4930556,30,1970,1994,8,17,123.55,163,2/12/2025
2000,WOOLIANA,-13.68166667,130.6366667,15,1963,2015,52,1,115.6326923,236,2/12/2025
2002,KATHERINE RESEARCH FARM,-14.47388889,132.3052778,110,1885,2015,128,3,95.78984375,250,2/12/2025
2003,CLARAVALE 2,-14.34805556,131.5766667,61,1969,2003,11,24,85.48181818,134.2,2/12/2025
2004,BONROOK,-13.86527778,131.8805556,171,1884,2010,99,28,99.34646465,269.2,2/12/2025
2005,ELIZABETH DOWNS,-13.74416667,130.4930556,36,1892,2015,96,28,117.9875,270.5,2/12/2025
2006,DALY RIVER MISSION,-13.75055556,130.6880556,67,1892,2003,81,31,113.382716,270.5,2/12/2025
2008,DALY RIVER POLICE,-13.76666667,130.71,67,1892,2003,81,31,112.7333333,270.5,2/12/2025
2009,JINDARE,-14.01527778,131.6102778,120,1961,2011,32,19,119.66875,337,2/12/2025
2010,FERGUSSON RIVER RAILWAY,-14.075,131.975,230,1938,1961,12,12,85.09166667,147.3,2/12/2025
2011,MARANBOY,-14.52638889,132.7855556,160,1924,1996,49,24,87.56734694,190.5,2/12/2025
2013,WILLEROO,-15.28666667,131.5813889,213,1910,2009,66,34,82.88787879,259.1,2/12/2025
2015,MANBULLOO,-14.51916667,132.1977778,107,1885,2015,128,3,95.82890625,233.7,2/12/2025
2017,TIPPERARY,-13.735,131.0433333,73,1936,2012,49,28,102.9367347,213.4,2/12/2025
2018,CDU KATHERINE RURAL CAMPUS,-14.37305556,132.1563889,142,1885,2013,126,3,95.91984127,250,2/12/2025
2019,INNESVALE,-15.35666667,131.2730556,238,1976,1998,19,4,80.30526316,111,2/12/2025
2021,TINDAL RAAF,-14.52277778,132.3825,134,1885,2015,128,3,95.38359375,284.4,2/12/2025
2022,PINE CREEK,-13.82388889,131.8366667,189,1884,2010,101,26,99.77821782,262.9,2/12/2025
2027,MANGO FARM,-13.73777778,130.6830556,15,1963,2015,52,1,115.6326923,236,2/12/2025
2028,SCOTT CREEK,-14.86444444,131.8441667,146,1980,2000,17,4,81.63529412,153,2/12/2025
2029,DORISVALE,-14.49916667,131.3466667,99,1987,2005,15,4,92.17333333,144,2/12/2025
2030,OOLLOO,-13.91555556,131.2116667,35,1963,2012,49,1,99.19183673,214.4,2/12/2025
2031,EVA VALLEY 2,-14.28,132.8341667,262,1969,2008,6,34,81.93333333,105,2/12/2025
2033,GARABALDI,-13.94055556,131.2175,60,1963,2015,51,2,101,230,2/12/2025
2034,PINE CREEK GOLDFIELDS,-13.82666667,131.8241667,280,1990,1994,5,0,102.1,125,2/12/2025
2035,UPPER FERGUSSON RIVER,-14.01055556,132.2080556,186,1985,2008,7,17,109.9142857,211.6,2/12/2025
2036,PORT KEATS AERO,-14.24916667,129.5280556,28,1938,2014,32,45,135.840625,224.5,2/12/2025
2037,DELAMERE WEAPONS RANGE,-15.74416667,131.9180556,221,1999,2015,7,10,82.68571429,117.8,2/12/2025
2039,MARGARET DOWNS,-15.42166667,132.2716667,180,1969,2010,20,22,75.765,134.4,2/12/2025
2040,CUTTA CUTTA,-14.57555556,132.4708333,175,1985,2015,24,7,103.4416667,239,2/12/2025
2041,NITMILUK RANGERS,-14.32,132.4225,120,1885,2015,126,5,95.49285714,233.7,2/12/2025
2042,BONALBO,-13.94833333,131.3188889,102,1987,2011,23,2,108.5695652,192.4,2/12/2025
2044,FLORINA,-14.45194444,131.6855556,60,1969,2003,11,24,84.06363636,134.2,2/12/2025
2045,PINE CREEK COUNCIL,-13.82416667,131.8316667,206,1884,2010,101,26,99.84158416,262.9,2/12/2025
2056,HELEN SPRINGS,-18.43305556,133.8769444,288,1944,2008,63,2,77.86190476,256.5,2/12/2025
2057,RANKEN RIVER,-19.60138889,136.9077778,250,1909,2003,65,30,66.67230769,154.4,2/12/2025
2058,ROCKHAMPTON DOWNS,-18.94805556,135.1930556,225,1948,2001,43,11,77.14418605,325,2/12/2025
2059,WONARAH,-19.89805556,136.3355556,240,1949,1973,23,2,64.09565217,130.6,2/12/2025
2060,ALROY DOWNS,-19.29555556,136.0705556,229,1951,2003,46,7,63.5173913,170,2/12/2025
2061,CRESWELL DOWNS,-17.945,135.9066667,227,1950,1977,25,3,88.712,250.3,2/12/2025
2062,EVA DOWNS,-18.00138889,134.8616667,214,1951,2001,23,28,73.97826087,150.1,2/12/2025
2064,BANKA BANKA,-18.79166667,134.0291667,299,1944,2006,58,5,73.33793103,186,2/12/2025
2065,BEETALOO,-17.21805556,133.8005556,219,1965,1979,11,4,80.28181818,184,2/12/2025
2066,ANTHONY LAGOON,-17.9775,135.5316667,213,1903,2008,69,37,74.73043478,203.7,2/12/2025
2067,RENNER SPRINGS,-18.31805556,133.7947222,262,1945,2008,58,6,75.47413793,256.5,2/12/2025
2068,POWELL CREEK,-18.07944444,133.675,239,1887,1986,81,19,77.52592593,213.6,2/12/2025
2069,BRUNETTE DOWNS,-18.63666667,135.945,218,1893,2015,101,22,71.08217822,261.8,2/12/2025
2070,NEWCASTLE WATERS,-17.37888889,133.4094444,209,1889,2015,106,21,73.93113208,198.1,2/12/2025
2071,TENNANT CREEK POST OFFICE,-19.6475,134.1891667,377,1884,2015,129,3,67.94031008,234.2,2/12/2025
2072,ALEXANDRIA,-19.05777778,136.7063889,274,1886,2008,83,40,62.34216867,172.4,2/12/2025
2073,NEWCASTLE WATERS POST OFFICE,-17.38305556,133.4,210,1889,2015,106,21,74.05566038,198.1,2/12/2025
2074,FREWENA,-19.435,135.4016667,228,1952,1965,9,5,62.31111111,119.6,2/12/2025
2076,UCHARONIDGE,-17.67416667,134.2505556,253,1967,2007,23,18,73.8173913,130,2/12/2025
2077,MUCKATY,-18.62777778,133.8713889,280,1944,2008,65,0,74.75538462,199.1,2/12/2025
2078,PHILLIP CREEK,-19.27333333,134.1230556,350,1967,2007,34,7,64.89705882,140.8,2/12/2025
2079,BRUNCHILLY,-18.86888889,134.4988889,250,1968,2008,31,10,68.15483871,139,2/12/2025
2081,MITTIEBAH,-18.80527778,137.0866667,268,1968,2007,38,2,67.53684211,167.2,2/12/2025
2083,THREEWAYS ROADHOUSE,-19.4375,134.2083333,328,1884,2015,129,3,66.62325581,234.2,2/12/2025
2084,ELLIOTT,-17.55166667,133.5405556,220,1889,2015,106,21,79.2254717,198.1,2/12/2025
2088,TENNANT CREEK AIRPORT,-19.64194444,134.1830556,376,1884,2015,129,3,67.11782946,234.2,2/12/2025
2091,WARRAMUNGA,-19.93277778,134.3544444,381,1973,2010,36,2,62.7,140,2/12/2025
2092,WARREGO MINE,-19.44555556,133.8213889,351,1970,2004,25,10,64.656,150,2/12/2025
2093,PEKO MINE,-19.68305556,134.2830556,342,1884,2015,129,3,67.43410853,234.2,2/12/2025
2096,BARKLY HOMESTEAD,-19.71138889,135.8272222,230,1988,2002,12,3,62.95,114.6,2/12/2025
2097,WALHALLOW,-17.78388889,135.6625,235,1920,2007,15,73,70.00666667,108.2,2/12/2025
2098,GECKO MINE,-19.43305556,134.0666667,359,1967,2007,35,6,62.66857143,156,2/12/2025
2099,KIANA,-17.24333333,136.1838889,230,1986,2002,15,2,86.72666667,202,2/12/2025
2100,NUMBER 36 BORE,-19.28138889,137.2438889,255,1985,2006,20,2,60.62,107,2/12/2025
2102,AURUKUN SHIRE COUNCIL,-13.35388889,141.7205556,13,1914,2007,85,9,129.6682353,346.2,2/12/2025
2103,BADU MULGRAVE ISLAND,-10,142.1666667,5,1914,1954,22,19,145.2409091,274.1,2/12/2025
2104,BOIGU,-9.233055556,142.2166667,0,1927,1952,11,15,118.9272727,204,2/12/2025
2105,BOOBY ISLAND LIGHTHOUSE,-10.60555556,141.9141667,19,1909,2000,82,10,113.0792683,281.9,2/12/2025
2106,CAPE YORK POST OFFICE,-10.7,142.5330556,40,1888,2010,88,35,143.6931818,370.8,2/12/2025
2107,COEN POST OFFICE,-13.94416667,143.2005556,199,1889,2012,122,2,118.5680328,393,2/12/2025
2108,COEN AIRPORT EVAP,-13.76416667,143.1177778,161,1889,2012,122,2,111.1991803,305.6,2/12/2025
2109,COWELL CREEK,-10.9,142.3166667,2,1930,2010,37,44,132.1,370.8,2/12/2025
2110,DARNLEY ISLAND SCHOOL,-9.6,143.6994444,53,1923,1976,36,18,101.6916667,233.2,2/12/2025
2111,DAUAN ISLAND,-9.4,142.55,71,1927,1971,19,26,96.88421053,381,2/12/2025
2112,GOODE ISLAND LIGHTHOUSE,-10.56666667,142.15,104,1940,1992,52,1,137.175,379,2/12/2025
2113,MABUIAG ISLAND,-9.983055556,143.1994444,9,1928,2015,49,39,129.1693878,345,2/12/2025
2114,OLD MAPOON,-12.01555556,141.9,6,1896,1962,49,18,124.1020408,230.1,2/12/2025
2115,STATION,-11.55,142.4666667,58,1888,1928,31,10,114.716129,235.5,2/12/2025
2116,STATION,-13.18305556,142.8,122,1888,2015,55,73,99.72909091,266.7,2/12/2025
2117,STATION,-12.45305556,142.6388889,40,1888,2012,99,26,96.70606061,398.8,2/12/2025
2118,MURRAY ISLAND,-9.916666667,144.0330556,101,1914,1973,30,30,114.06,241.8,2/12/2025
2119,NAGHIR ISLAND,-10.25,142.4830556,20,1912,1973,48,14,119.4104167,245.6,2/12/2025
2120,SAIBAI ISLAND,-9.4,142.6994444,7,1914,1954,30,11,120.6633333,244.1,2/12/2025
2121,MOA ISLAND MISSION,-10.18305556,142.3330556,5,1912,1973,48,14,127.4520833,245.9,2/12/2025
2122,STEPHEN ISLAND,-9.5,143.5330556,5,1923,1976,36,18,107.4333333,233.2,2/12/2025
2123,THURSDAY ISLAND TOWNSHIP,-10.58305556,142.2202778,8,1906,2015,101,9,136.4089109,293.6,2/12/2025
2124,THURSDAY ISLAND MO,-10.58527778,142.21,58,1906,1996,91,0,137.5142857,379,2/12/2025
2125,WENLOCK POST OFFICE,-13.08305556,142.9494444,150,1888,1956,43,26,97.87906977,266.7,2/12/2025
2126,YAM ISLAND SCHOOL,-9.9,142.7830556,5,1947,1960,7,7,108.1142857,185.2,2/12/2025
2127,YORK ISLAND SCHOOL,-9.75,143.4166667,5,1914,1974,20,41,131.355,241.3,2/12/2025
2128,HORN ISLAND AIRPORT,-10.59055556,142.2877778,13,1906,2015,106,4,134.8962264,293.6,2/12/2025
2129,YARRADEN,-14.31666667,143.3,185,1961,1979,8,11,151.975,251,2/12/2025
2131,BAMAGA,-10.89666667,142.3841667,58,1961,2010,21,29,164.9619048,395,2/12/2025
2132,STATION,-14.47805556,142.8263889,77,1961,2005,11,34,91.92727273,164,2/12/2025
2134,STATION,-12.66055556,142.6705556,50,1888,2012,99,26,97.1969697,398.8,2/12/2025
2135,SOMERSET,-10.75,142.6,0,1888,2010,88,35,144.8409091,370.8,2/12/2025
2136,THURSDAY ISLAND RESIDENCY,-10.58305556,142.2166667,8,1906,2015,101,9,135.950495,293.6,2/12/2025
2137,PEAK POINT,-10.71666667,142.4330556,3,1888,2015,121,7,139.6239669,370.8,2/12/2025
2138,STATION,-16.42305556,143.1455556,93,1967,2009,34,9,101.2676471,243,2/12/2025
2139,STATION,-14.88555556,142.8016667,122,1994,2009,15,1,101.5466667,200,2/12/2025
2141,STATION,-14.85,143.2666667,229,1968,1977,8,2,98.8125,181.2,2/12/2025
2142,WEIPA EASTERN AVE,-12.62666667,141.8830556,20,1914,2015,88,14,130.8352273,279.2,2/12/2025
2143,MERIPAH,-13.74555556,142.4275,76,1971,1989,18,1,124.0944444,324,2/12/2025
2144,MERLUNA,-13.06555556,142.4505556,80,1914,2009,46,50,108.473913,240,2/12/2025
2145,WEIPA AERO,-12.67777778,141.9205556,18,1914,2015,88,14,132.3272727,327.8,2/12/2025
2146,DIXIE,-15.11388889,143.31,150,1970,2003,16,18,91.16875,144,2/12/2025
2148,ROKEBY NATIONAL PARK,-13.65777778,142.6688889,80,1974,2002,28,1,113.6964286,237.2,2/12/2025
2149,HEATHLANDS NATIONAL PARK,-11.75055556,142.5816667,113,1974,2006,24,9,106.5,162.6,2/12/2025
2151,PROUDFOOT SHOAL,-10.53305556,141.4494444,5,1888,1903,11,5,87.14545455,134.1,2/12/2025
2152,COCONUT ISLAND,-10.05055556,143.0680556,4,1928,2015,49,39,129.1693878,345,2/12/2025
2153,STATION,-14.87666667,142.9641667,125,1994,2009,15,1,101.3466667,200,2/12/2025
2154,WOLVERTON,-13.31805556,142.8905556,150,1888,2008,49,72,97.94897959,266.7,2/12/2025
2156,HORN ISLAND,-10.58416667,142.29,4,1906,2015,102,8,132.5607843,244.9,2/12/2025
2158,STATION,-14.51805556,142.0388889,45,1997,2009,11,2,128.2363636,272,2/12/2025
2159,PUNSAND BAY,-10.71916667,142.4580556,11,1888,2015,121,7,140.614876,370.8,2/12/2025
2160,ARCHER RIVER ROADHOUSE,-13.43805556,142.9416667,113,1994,2008,12,3,96.98333333,151,2/12/2025
2161,STATION,-13.1325,142.7866667,100,1888,2015,42,86,100.7547619,266.7,2/12/2025
2163,STATION,-12.7075,142.3605556,75,1997,2003,4,3,105.1,124.4,2/12/2025
2164,STATION,-13.74638889,142.1416667,30,1997,2003,6,1,105.75,143.2,2/12/2025
2172,LAURA POST OFFICE,-15.55805556,144.4452778,95,1897,2008,95,17,89.21789474,223.5,2/12/2025
2173,LOCKHART RIVER MISSION,-12.98305556,143.5,20,1936,1968,20,13,130.875,306.3,2/12/2025
2174,MAYTOWN,-16.05,144.3,292,1888,1963,75,1,85.55866667,188.5,2/12/2025
2175,MUNGANA,-17.1,144.3830556,342,1903,2009,107,0,90.91214953,208,2/12/2025
2176,PALMERVILLE,-16.00055556,144.0755556,204,1890,2015,121,5,90.25454545,208,2/12/2025
2177,KING JUNCTION,-15.88416667,143.5119444,125,1913,1996,35,49,89.78285714,184.4,2/12/2025
2178,WALSH RIVER POST OFFICE,-16.68305556,143.9,181,1897,2003,103,4,95.05728155,348,2/12/2025
2179,MUSGRAVE,-14.78027778,143.5030556,79,1888,2011,95,29,107.3210526,348.2,2/12/2025
2180,LOCKHART RIVER AIRPORT,-12.785,143.3041667,19,1957,2015,53,6,155.4301887,338.6,2/12/2025
2181,STATION,-17.04666667,144.3488889,305,1934,2006,53,20,94.51320755,208,2/12/2025
2182,STATION,-15.49916667,144.2813889,165,1891,1995,44,61,98.11818182,206,2/12/2025
2183,KALPOWAR,-14.88666667,144.2166667,10,1962,2010,42,7,89.36904762,255,2/12/2025
2184,KOOLBURRA,-15.31666667,143.9555556,80,1959,2008,45,5,94.54666667,161.6,2/12/2025
2185,STATION,-16.22166667,144.7080556,490,1965,2014,46,4,86.73913043,172,2/12/2025
2186,STATION,-14.48916667,143.6775,40,1971,2003,32,1,124.55,273,2/12/2025
2187,WROTHAM PARK,-16.66166667,143.9966667,152,1897,2003,103,4,94.58446602,348,2/12/2025
2188,STATION,-15.04388889,143.7613889,30,1969,1996,23,5,103.9217391,168.1,2/12/2025
2189,STATION,-13.97666667,143.55,10,1960,1998,21,18,136.0714286,294.6,2/12/2025
2190,KALINGA,-15.19916667,143.8555556,80,1959,2008,45,5,105.4688889,175,2/12/2025
2191,RESTORATION ISLAND,-12.6175,143.4469444,5,1957,2015,53,6,145.3641509,338.6,2/12/2025
2194,STATION,-16.54166667,143.6691667,120,1973,2007,19,16,82.75263158,157.5,2/12/2025
2195,LAKEFIELD NATIONAL PARK,-14.92555556,144.1991667,28,1962,2010,42,7,92.20952381,281,2/12/2025
2196,BIZANT,-14.73638889,144.1175,15,1962,2010,42,7,89.04285714,255,2/12/2025
2197,PINNACLE,-15.68666667,143.5630556,180,1972,2009,38,0,95.16578947,284,2/12/2025
2198,KILLARNEY 2,-15.42555556,143.4941667,160,1975,1996,19,3,105.2631579,173,2/12/2025
2199,KIMBA,-15.61166667,143.4780556,229,1972,2009,38,0,106.5342105,361,2/12/2025
2200,STATION,-16.87166667,143.4730556,140,1970,1997,23,5,88.90434783,202.5,2/12/2025
2202,STATION,-14.73166667,143.5863889,59,1888,2011,95,29,106.4926316,348.2,2/12/2025
2208,STATION,-18.295,139.2827778,43,1939,2009,42,29,89.1452381,209,2/12/2025
2209,STATION,-18.54416667,139.8705556,75,1900,2008,78,31,85.6474359,252,2/12/2025
2210,ARIZONA,-19.53166667,141.3530556,90,1922,2014,75,18,83.012,224,2/12/2025
2211,BURKETOWN POST OFFICE,-17.7425,139.5475,6,1888,2015,120,8,122.5216667,368.8,2/12/2025
2212,CANOBIE,-19.47638889,140.9316667,55,1900,2009,90,20,78.97111111,215.5,2/12/2025
2213,CROYDON TOWNSHIP,-18.20416667,142.2441667,116,1890,2013,121,3,92.84545455,381,2/12/2025
2214,STATION,-18.71388889,140.5466667,50,1890,2015,106,20,92.65566038,322,2/12/2025
2215,STATION,-16.04138889,142.3780556,40,1923,2015,84,9,100.5821429,292.1,2/12/2025
2216,STATION,-18.8525,142.5741667,175,1933,2015,63,20,94.32063492,220,2/12/2025
2217,GILBERT RIVER POST OFFICE,-18.14944444,142.85,199,1888,2008,105,16,88.75619048,200.4,2/12/2025
2218,STATION,-17.36666667,141.5,23,1940,1948,6,3,98.56666667,196.9,2/12/2025
2219,STATION,-18.86916667,141.2066667,50,1911,2006,79,17,90.93037975,224.3,2/12/2025
2220,STATION,-18.13305556,142.85,197,1888,2008,105,16,88.60190476,200.4,2/12/2025
2221,STATION,-19.36,140.0413889,91,1908,2009,74,28,84.42432432,278.6,2/12/2025
2222,KARUMBA AIRPORT,-17.45555556,140.8316667,5,1888,2005,59,59,114.3152542,348,2/12/2025
2223,STATION,-15.89305556,142.4438889,43,1923,2015,84,9,98.54166667,298.7,2/12/2025
2224,LAWN HILL,-18.58055556,138.5805556,70,1913,2008,88,8,83.55795455,216.2,2/12/2025
2225,LORRAINE,-19.00666667,139.8955556,75,1909,2007,91,8,84.63626374,232,2/12/2025
2226,STATION,-16.64944444,141.4494444,8,1924,1940,12,5,121.525,194.3,2/12/2025
2227,MILGARRA,-18.205,140.8866667,15,1931,1981,36,15,90.275,181,2/12/2025
2228,STATION,-19.85805556,141.5566667,100,1907,2013,90,17,80.28,197,2/12/2025
2229,STATION,-17.32916667,141.8791667,50,1897,2009,69,44,103.0768116,232.4,2/12/2025
2230,KOWANYAMA AIRPORT,-15.48166667,141.7480556,10,1913,2015,95,8,123.7957895,361.2,2/12/2025
2231,MORNINGTON ISLAND,-16.66388889,139.1833333,9,1915,2012,73,25,148.1835616,377.2,2/12/2025
2232,STATION,-19.52555556,138.3663889,250,1913,2009,80,17,76.78375,200.7,2/12/2025
2233,NORMANTON POST OFFICE,-17.67055556,141.0666667,8,1888,2009,121,1,106.0512397,299,2/12/2025
2234,STATION,-18.91666667,142.25,193,1920,1964,27,18,90.04444444,243.8,2/12/2025
2235,STRATHMORE,-17.86166667,142.5602778,120,1921,2003,77,6,91.88311688,247,2/12/2025
2237,STATION,-19.62416667,138.6380556,250,1917,2015,93,6,68.41827957,210.8,2/12/2025
2238,STATION,-16.96805556,141.9541667,35,1922,2009,77,11,110.6844156,265.7,2/12/2025
2239,STATION,-18.57305556,140.8966667,40,1940,2008,59,10,88.39322034,234,2/12/2025
2240,PORMPURAAW TOWNSHIP,-14.89888889,141.6191667,4,1953,2008,36,20,145.7638889,370.8,2/12/2025
2241,STATION,-19.46666667,141.2666667,116,1931,2004,49,25,78.37755102,185.7,2/12/2025
2242,STATION,-18.20916667,142.6575,158,1888,2008,93,28,85.34408602,164.3,2/12/2025
2244,STATION,-17.18305556,141.7105556,60,1897,2009,69,44,106.3855072,232.4,2/12/2025
2245,STATION,-18.53305556,140.65,45,1890,2015,106,20,91.17075472,322,2/12/2025
2246,STATION,-17.88305556,138.5830556,56,1913,1934,13,9,85.30769231,157,2/12/2025
2247,HERBERT VALE,-18.95055556,138.0530556,250,1890,2009,45,75,71.56444444,175,2/12/2025
2248,STATION,-19.25,140.6330556,86,1921,1935,15,0,85.04,151.6,2/12/2025
2249,NORMANTON AIRPORT,-17.68666667,141.0730556,18,1888,2009,121,1,104.1454545,299,2/12/2025
2250,STATION,-18.78805556,139.7116667,100,1965,2009,45,0,92.14,242.1,2/12/2025
2251,STATION,-19.02805556,138.7405556,150,1885,1997,19,94,71.45789474,136.4,2/12/2025
2252,STATION,-18.16888889,139.1380556,30,1939,2009,35,36,88.52285714,209,2/12/2025
2253,STATION,-17.33805556,138.2505556,60,1965,2015,44,7,113.825,248.9,2/12/2025
2254,GREEN CREEK,-18.05,142,105,1888,1892,4,1,77.45,101.1,2/12/2025
2255,STATION,-18.22805556,139.8738889,12,1890,2002,42,71,102.55,326.6,2/12/2025
2256,STATION,-17.46666667,140.8330556,5,1888,2005,59,59,113.8932203,348,2/12/2025
2257,NORMANTON HOSPITAL,-17.68305556,141.0830556,12,1888,2009,121,1,104.1454545,299,2/12/2025
2258,STATION,-17.96666667,142.3330556,108,1918,1933,14,2,91.51428571,172.7,2/12/2025
2259,STATION,-17.77916667,140.8791667,16,1888,2009,121,1,104.3272727,299,2/12/2025
2260,BURKETOWN AIRPORT,-17.74805556,139.5355556,6,1888,2015,120,8,122.2633333,368.8,2/12/2025
2262,STATION,-19.31416667,138.3316667,250,1913,2009,80,17,77.05625,200.7,2/12/2025
2263,STATION,-18.50277778,139.2902778,76,1939,2009,52,19,85.28461538,187,2/12/2025
2264,STATION,-18.38805556,142.2580556,110,1890,2013,121,3,95.77355372,381,2/12/2025
2265,STATION,-17.95666667,139.7552778,15,1970,2004,30,5,105.7,305.2,2/12/2025
2268,STATION,-18.96055556,140.5380556,60,1971,2008,29,9,92.06206897,317,2/12/2025
2269,GREGORY DOWNS HOTEL,-18.65,139.25,11,1971,1972,2,0,95.25,102.1,2/12/2025
2270,STATION,-19.82527778,140.1605556,120,1959,2004,42,4,79.82857143,160,2/12/2025
2271,STATION,-19.83916667,140.9330556,90,1959,2007,48,1,74.05416667,162.6,2/12/2025
2272,DOOMADGEE SHARP STREET,-17.94305556,138.8216667,50,1957,1993,27,10,98.97037037,238.6,2/12/2025
2273,MAMMOTH MINE,-19.68805556,139.3655556,225,1972,2006,24,11,84.77083333,235,2/12/2025
2275,STATION,-18.30777778,142.3555556,140,1890,2013,121,3,94.88264463,381,2/12/2025
2276,STATION,-18.64166667,139.2513889,78,1959,2009,47,4,83.6893617,165.6,2/12/2025
2277,STATION,-15.63805556,141.8227778,20,1913,2015,95,8,122.5010526,361.2,2/12/2025
2278,STATION,-16.99305556,141.3155556,20,1975,2005,20,11,122.87,250,2/12/2025
2280,STATION,-18.06916667,141.6252778,60,1972,2001,25,5,84.696,179,2/12/2025
2281,STATION,-19.60277778,142.2391667,160,1971,2001,30,1,89.84666667,177.8,2/12/2025
2282,STATION,-15.83305556,141.4166667,1,1916,1918,2,1,113.7,120.7,2/12/2025
2283,STATION,-18,140.5666667,22,1959,1970,4,8,90.75,111.8,2/12/2025
2284,STATION,-19.66555556,141.3955556,100,1922,2014,68,25,83.72794118,224,2/12/2025
2285,SWEERS ISLAND,-17.11416667,139.5980556,4,1901,2015,15,100,141.5933333,251,2/12/2025
2286,STATION,-18.24305556,140.5280556,20,1987,2004,10,8,93.92,145,2/12/2025
2287,LAWN HILL GORGE NPWS,-18.70305556,138.4838889,145,1986,2008,23,0,81.68695652,186.6,2/12/2025
2289,YAPPAR RIVER,-18.43055556,141.2680556,21,1994,2008,14,1,74.6,143,2/12/2025
2290,STATION,-19.22416667,141.6391667,90,1995,2002,2,6,88,92,2/12/2025
2291,STATION,-17.8,139.3591667,30,1888,2015,120,8,123.0008333,368.8,2/12/2025
2292,KINGFISHER CAMP,-18.1,138.3,90,1997,2009,13,0,107.1846154,186,2/12/2025
2293,STATION,-18.09805556,138.3030556,100,1997,2009,13,0,95.75384615,186,2/12/2025
2301,STATION,-17.60305556,143.1805556,61,1947,2013,56,11,99.63214286,233.7,2/12/2025
2303,STATION,-19.68305556,145.5330556,457,1940,1974,26,9,84.55,172.5,2/12/2025
2304,STATION,-18.71916667,144.3180556,480,1912,2002,91,0,85.38351648,259.1,2/12/2025
2305,STATION,-19.7,144.1166667,914,1913,1975,56,7,74.01964286,212.1,2/12/2025
2306,STATION,-18.3,143.4,300,1888,2015,122,6,88.63442623,235.7,2/12/2025
2307,EINASLEIGH TOWNSHIP,-18.51888889,144.0913889,458,1909,2003,63,32,86.32857143,217.2,2/12/2025
2309,GEORGETOWN POST OFFICE,-18.29166667,143.5480556,292,1888,2015,122,6,92.38442623,235.7,2/12/2025
2310,GILBERTON,-19.26416667,143.6738889,536,1913,2001,85,4,82.45058824,283.2,2/12/2025
2311,KIDSTON GOLD MINE,-18.87555556,144.1430556,520,1912,2002,91,0,84.96263736,206.8,2/12/2025
2312,STATION,-19.20388889,144.37,884,1890,2008,97,22,85.02268041,273.1,2/12/2025
2313,STATION,-19.54555556,145.2530556,430,1901,2008,84,24,74.3547619,146.8,2/12/2025
2314,MOUNT SURPRISE TOWNSHIP,-18.14666667,144.3180556,462,1888,2010,106,17,86.67830189,227.3,2/12/2025
2315,STATION,-19.25416667,144.1530556,700,1891,2014,87,37,81.72298851,178,2/12/2025
2316,STATION,-18.27805556,143.2241667,335,1888,2005,101,17,90.03168317,254,2/12/2025
2317,STATION,-18.42166667,144.4625,560,1912,2015,100,4,81.266,255.8,2/12/2025
2318,STATION,-18.62416667,144.5738889,540,1912,2015,103,1,83.6631068,289.8,2/12/2025
2319,STATION,-19.67305556,144.8894444,560,1913,2008,81,15,75.58148148,172.6,2/12/2025
2320,FORSAYTH CARAVAN PARK,-18.58805556,143.6016667,400,1956,2009,41,13,97.09268293,215.1,2/12/2025
2322,STATION,-19.63305556,144.15,853,1957,2004,40,8,84.1025,198,2/12/2025
2323,STATION,-19.2,143.5,522,1913,2001,85,4,80.62352941,283.2,2/12/2025
2324,STATION,-18.68305556,144.7441667,512,1912,2015,102,2,81.31764706,289.8,2/12/2025
2325,STATION,-19.46416667,144.3188889,793,1956,2009,53,1,86.33773585,191.8,2/12/2025
2326,STATION,-18.76666667,144.85,572,1893,1979,37,50,100.6918919,321,2/12/2025
2327,STATION,-18.24166667,143.0316667,200,1888,1996,95,14,88.06421053,200.4,2/12/2025
2328,VAN LEE,-17.85,143.7027778,240,1969,2001,30,3,99.83,276,2/12/2025
2329,STATION,-19.70333333,144.3775,760,1927,2015,83,6,75.76506024,163.8,2/12/2025
2330,TOOMBA STUD,-19.97055556,145.585,380,1893,2012,58,62,79.67586207,257,2/12/2025
2331,STATION,-17.39055556,144.1805556,300,1892,1999,44,64,90.64090909,166.8,2/12/2025
2333,STATION,-17.39944444,144.1994444,313,1892,1999,44,64,90.64090909,166.8,2/12/2025
2334,STATION,-19.37666667,144.1155556,800,1956,2009,53,1,83.4245283,191.8,2/12/2025
2335,STATION,-19.19638889,144.0013889,670,1891,2014,87,37,80.57586207,157.7,2/12/2025
2336,STATION,-18.08055556,143.4616667,260,1888,2015,122,6,89.18114754,235.7,2/12/2025
2337,STATION,-19.92166667,144.9580556,680,1969,2007,39,0,78.63333333,141,2/12/2025
2338,STATION,-19.6625,145.2830556,500,1972,1989,15,3,82.24,239,2/12/2025
2339,STATION,-19.96805556,144.6880556,770,1972,2000,26,3,85.93461538,212,2/12/2025
2340,STATION,-18.17777778,143.3616667,250,1888,2015,120,8,91.21416667,235.7,2/12/2025
2341,STATION,-18.2225,143.9691667,370,1940,2009,59,11,97,254,2/12/2025
2342,AGATE CREEK CAMP,-19.0425,143.6330556,534,1913,2001,85,4,79.96352941,283.2,2/12/2025
2343,STATION,-18.93666667,144.4905556,540,1971,2009,35,4,77.07714286,162,2/12/2025
2344,STATION,-18.83805556,143.7080556,460,1971,2006,34,2,82.69705882,200,2/12/2025
2346,STATION,-18.11416667,143.2855556,240,1967,2015,45,4,88.60222222,169.2,2/12/2025
2347,STATION,-18.45,143.5330556,270,1888,2009,120,2,93.37916667,235.7,2/12/2025
2349,NORTH HEAD,-18.82416667,143.2530556,309,1970,2004,27,8,91.30740741,204,2/12/2025
2350,BLACKBRAES N.P,-19.5375,144.205,818,1956,2009,54,0,82.32222222,198,2/12/2025
2352,STATION,-19.055,144.9591667,457,1912,2013,95,7,80.88,254.8,2/12/2025
2353,STATION,-18.11805556,144.5538889,630,1971,1986,16,0,96.71875,165.4,2/12/2025
2354,STATION,-19.25,143.0666667,305,1967,1980,14,0,100.0571429,256,2/12/2025
2356,STATION,-18.26666667,144.4,508,1888,2010,106,17,86.67830189,227.3,2/12/2025
2357,STATION,-19.42305556,145.31,400,1901,2008,84,24,75.06071429,146.8,2/12/2025
2358,STATION,-19.89,145.6125,370,1893,2012,58,62,78.39137931,213,2/12/2025
2360,STATION,-19.80166667,145.8591667,310,1900,2015,107,9,71.67476636,177.5,2/12/2025
2361,STATION,-19.63416667,145.7880556,300,1900,2015,107,9,72.27009346,159.5,2/12/2025
2362,CHILLAGOE ATHERTON STREET,-17.15888889,144.5166667,369,1903,2009,103,4,83.79320388,167.9,2/12/2025
2363,STATION,-19.76,144.7816667,700,1963,1992,29,1,77.27586207,173,2/12/2025
2364,STATION,-19.75305556,144.5180556,610,1982,2013,23,9,76.76521739,130.2,2/12/2025
2365,STATION,-19.70055556,145.6563889,330,1893,2015,113,10,73.32212389,212.8,2/12/2025
2366,STATION,-19.38305556,143.1666667,364,,,0,0,,,2/12/2025
2367,STATION,-19.01416667,144.6475,535,1971,2009,35,4,76.55428571,162,2/12/2025
2368,STATION,-18.22527778,144.6716667,841,1971,2015,31,14,88.43225806,179.4,2/12/2025
2370,GREEN HILLS,-18.45638889,143.2980556,240,1973,2002,21,9,89.34285714,147,2/12/2025
2371,GREENVALE TOWNSHIP,-19,144.9766667,500,1955,2013,54,5,86.3,299.7,2/12/2025
2372,ALOOMBA STATE SCHOOL,-17.1,145.8166667,292,1912,1978,27,40,201.0185185,379.7,2/12/2025
2373,ARCHER POINT LIGHTHOUSE,-15.6,145.3330556,62,1896,2012,78,39,156.3538462,396.2,2/12/2025
2374,ATHERTON POST OFFICE,-17.26666667,145.4830556,752,1895,2015,114,7,126.5105263,338.8,2/12/2025
2375,AYTON,-15.91666667,145.35,11,1913,2010,94,4,188.5489362,375,2/12/2025
2376,BABINDA POST OFFICE,-17.34305556,145.9216667,14,1888,2015,128,0,264.91875,399,2/12/2025
2377,BARRINE,-17.21666667,145.6166667,793,1895,2015,114,7,140.1894737,344.4,2/12/2025
2378,SEVERIN STATE FOREST,-17.21666667,145.6666667,644,1923,2015,87,6,144.5597701,335.3,2/12/2025
2380,BIBOOHRA,-16.89166667,145.4191667,375,1896,2015,118,2,109.8940678,359.7,2/12/2025
2381,STATION,-15.84666667,144.8752778,275,1952,2007,16,40,107.33125,235.5,2/12/2025
2382,CAIRNS POST OFFICE,-16.93305556,145.7830556,2,1888,2015,128,0,190.4296875,385.3,2/12/2025
2383,CAIRNS AERO,-16.87305556,145.7455556,2,1888,2015,128,0,188.65,385.3,2/12/2025
2384,CAPE TRIBULATION STORE,-16.09666667,145.4575,17,1913,2015,103,0,218.6592233,396.4,2/12/2025
2385,CHEWKO,-17.08305556,145.3666667,516,1932,2015,84,0,101.1892857,236,2/12/2025
2387,CLOHESY RIVER,-16.91166667,145.8955556,350,1935,1998,61,3,129.647541,293.4,2/12/2025
2388,COOKTOWN POST OFFICE,-15.46305556,145.25,6,1888,2015,124,4,157.6927419,397.5,2/12/2025
2389,COOKTOWN MISSION STRIP,-15.44805556,145.1855556,14,1888,2015,124,4,156.4653226,397.5,2/12/2025
2390,RAVENSHOE BINBROOK ESTATE,-17.66555556,145.4355556,760,1954,2001,23,25,127.5695652,295.9,2/12/2025
2391,DAINTREE RIVER MISSION,-16.3,145.3,569,1931,1952,11,11,187.2272727,316,2/12/2025
2392,DANBULLA FORESTRY,-17.16,145.625,671,1914,2015,98,4,139.4561224,355.6,2/12/2025
2393,DEERAL,-17.20805556,145.9088889,20,1912,2015,104,0,257.8317308,397,2/12/2025
2394,DIMBULAH BRICKLEY ST,-17.14916667,145.1080556,407,1932,2003,61,11,84.26557377,176.4,2/12/2025
2395,NORTHCOTE HOMESTEAD,-17.00805556,145.1680556,500,1890,2010,108,13,101.0851852,279.4,2/12/2025
2396,EVELYN STATE FOREST,-17.535,145.4816667,1006,1921,2015,92,3,112.9206522,326,2/12/2025
2397,GADGARRA FOREST RESERVE,-17.3,145.7,762,1895,2015,114,7,156.1324561,393,2/12/2025
2398,GLEN BOUGHTON,-16.95,145.8,5,1888,2015,128,0,195.9421875,385.3,2/12/2025
2399,GREEN ISLAND 1,-16.75916667,145.9705556,15,1895,1999,85,20,187.0964706,379.2,2/12/2025
2400,HAMBLEDON MILL CSR,-17.01916667,145.7230556,40,1888,2015,128,0,201.3601563,395,2/12/2025
2401,HERBERTON WHITE ST,-17.585,145.3866667,918,1888,2015,127,1,104.0503937,355.6,2/12/2025
2402,HOPE VALE,-15.29388889,145.1069444,60,1896,2012,113,4,144.5061947,396.2,2/12/2025
2404,IRVINEBANK,-17.43055556,145.2027778,763,1891,2015,116,9,92.73275862,235.2,2/12/2025
2405,JULATTEN,-16.59777778,145.3630556,400,1911,2015,92,13,152.3684783,379.2,2/12/2025
2406,STATION,-17.215,145.5655556,697,1914,2015,98,4,119.1459184,309.9,2/12/2025
2407,KOAH,-16.84166667,145.5227778,366,1896,2015,118,2,155.1372881,385.6,2/12/2025
2408,STATION,-16.81777778,145.6380556,340,1899,2015,115,2,193.9426087,396,2/12/2025
2409,LOW ISLES LIGHTHOUSE,-16.38416667,145.5591667,3,1888,2015,127,1,176.5456693,394.8,2/12/2025
2410,MALANDA POST OFFICE,-17.35305556,145.5916667,762,1895,2015,114,7,132.1973684,379.2,2/12/2025
2411,MAREEBA POST OFFICE,-17.01666667,145.4166667,404,1896,2015,116,4,99.05948276,269,2/12/2025
2412,MERINGA SUGAR EXP STN,-17.06916667,145.7741667,15,1888,2015,128,0,187.2242188,379.7,2/12/2025
2413,ROCKY POINT,-16.39944444,145.35,91,1923,2009,77,10,205.6844156,364.2,2/12/2025
2414,MILLAA MILLAA POST OFFICE,-17.51,145.61,831,1915,2015,88,13,153.8579545,398,2/12/2025
2415,MOUNT MOLLOY POST OFFICE,-16.675,145.3291667,389,1911,2015,92,13,138.8945652,383.5,2/12/2025
2416,MOSSMAN CENTRAL MILL,-16.45666667,145.3775,30,1888,2015,127,1,203.9811024,389.6,2/12/2025
2417,MOSSMAN POST OFFICE,-16.46166667,145.375,30,1888,2015,127,1,204.2330709,393.4,2/12/2025
2418,MT GARNET POST OFFICE,-17.67666667,145.115,658,1903,2015,111,2,88.33873874,210.8,2/12/2025
2419,MOUNT MULLIGAN,-16.86666667,144.8830556,610,1923,1956,17,17,90.81176471,170.9,2/12/2025
2420,MOWBRAY,-16.56666667,145.4666667,60,1888,2015,124,4,178.7645161,372.9,2/12/2025
2421,MULGRAVE MILL,-17.09277778,145.7905556,15,1888,2015,128,0,190.5085938,388,2/12/2025
2422,PEERAMON,-17.31166667,145.6216667,760,1895,2015,114,7,136.3807018,379.2,2/12/2025
2423,PETFORD,-17.34416667,144.9305556,470,1921,2015,74,21,89.07162162,175.3,2/12/2025
2424,PORT DOUGLAS - WARNER,-16.48388889,145.4641667,14,1888,2015,127,1,182.988189,389.6,2/12/2025
2425,RAVENSHOE KURADILLA STREET,-17.60666667,145.4805556,915,1888,2014,126,1,120.6571429,375.9,2/12/2025
2426,SHOTTERY,-17.61666667,145.55,914,1888,2014,126,1,140.8992063,383.4,2/12/2025
2427,MOSSMAN SOUTH ALCHERA DRIVE,-16.47277778,145.3741667,30,1888,2015,127,1,192.8645669,393.4,2/12/2025
2428,THE SPRINGS,-16.96666667,145.3166667,495,1932,2015,75,9,102.516,229.6,2/12/2025
2429,TOLGA POST OFFICE,-17.22305556,145.4791667,543,1932,1987,42,14,124.8642857,330.2,2/12/2025
2430,TOPAZ 1,-17.39944444,145.7,635,1929,1969,31,10,209.6903226,396.7,2/12/2025
2432,EAST BARRON FOREST RES,-17.31666667,145.5,958,1923,2015,90,3,112.2355556,330.2,2/12/2025
2433,WALKAMIN POST OFFICE,-17.13305556,145.4330556,549,1932,2011,76,4,102.1276316,284.8,2/12/2025
2434,WHYANBEEL VALLEY,-16.39055556,145.3505556,6,1888,2015,127,1,206.4133858,389.6,2/12/2025
2435,MT SHERIDAN,-16.99555556,145.7366667,25,1888,2015,128,0,201.9828125,395,2/12/2025
2436,YARRABAH COMM COUNCIL,-16.90805556,145.8880556,5,1888,2015,128,0,198.1171875,379.2,2/12/2025
2437,YUNGABURRA,-17.26333333,145.5891667,697,1914,2015,98,4,121.4591837,375,2/12/2025
2438,MAREEBA QWRC,-16.995,145.4252778,400,1896,2015,116,4,97.93362069,269,2/12/2025
2439,WESTERN BARRON SFR 194,-17.33305556,145.4166667,958,1923,2015,90,3,112.5877778,330.2,2/12/2025
2441,INNOT HOT SPRINGS TOWNSHIP,-17.66916667,145.2413889,640,1903,2015,111,2,86.73963964,249.7,2/12/2025
2443,MACHANS BEACH,-16.85,145.75,2,1888,2015,128,0,190.3851563,385.3,2/12/2025
2444,COOKTOWN,-15.1,145.0830556,94,1917,2009,62,31,152.2516129,289,2/12/2025
2447,TINAROO FALLS DAM,-17.16916667,145.5480556,671,1914,2015,98,4,120.2346939,316.8,2/12/2025
2448,STATION,-17.14666667,145.24,485,1932,2015,75,9,89.41466667,234.4,2/12/2025
2449,STATION,-17.465,145.2766667,740,1891,2015,116,9,92.825,235.2,2/12/2025
2450,VINE CREEK,-17.68305556,145.5330556,914,1888,2011,123,1,135.3707317,383.4,2/12/2025
2451,CHILVERTON,-17.54305556,145.5119444,1070,1994,2015,17,5,125.5294118,195,2/12/2025
2452,BELLENDEN KER,-17.29,145.9216667,90,1899,2015,87,30,270.4252874,399,2/12/2025
2453,KURANDA FORESTRY,-16.75888889,145.6141667,440,1962,2015,21,33,218.2190476,340,2/12/2025
2454,KOOMBOOLOOMBA DAM,-17.84,145.5955556,760,1961,1997,37,0,156.2567568,348.5,2/12/2025
2455,FITZROY ISLAND LIGHTHOUSE,-16.92666667,146.0030556,124,1963,1990,28,0,196.05,366,2/12/2025
2456,KAREEYA,-17.76666667,145.5777778,213,1958,2005,31,17,146.9870968,350.5,2/12/2025
2458,GORDONVALE POST OFFICE,-17.09305556,145.7866667,10,1888,2015,128,0,190.5085938,388,2/12/2025
2459,TRINITY PARK,-16.785,145.6980556,5,1888,2015,128,0,190.490625,385.3,2/12/2025
2460,KAMERUNGA HORT RES STN,-16.88305556,145.7,219,1890,1972,28,55,197.1571429,360.7,2/12/2025
2461,KABAN STATE SCHOOL,-17.5,145.5,1009,1923,2015,83,10,117.8686747,326,2/12/2025
2462,HARVEY CREEK RAILWAY STN,-17.26666667,145.9330556,87,1899,2015,87,30,269.4022989,399,2/12/2025
2463,GRASSY HILL RADIO OTC,-15.46666667,145.25,18,1888,2015,124,4,148.7572581,396.2,2/12/2025
2464,THORNBOROUGH,-16.95,145,547,1890,2007,70,48,101.6128571,279.4,2/12/2025
2466,SPRING CREEK 2,-17.2,145.5,737,1895,2015,114,7,121.4824561,330.2,2/12/2025
2468,STRATHBOUIN,-17.01666667,145.3666667,504,1932,2015,79,5,101.4582278,232.2,2/12/2025
2471,DAINTREE TEA,-16.19388889,145.4055556,122,1923,2009,59,28,224.0338983,364.2,2/12/2025
2472,GUNNAWARRA,-17.94666667,145.1616667,610,1891,1981,65,26,84.59230769,231.6,2/12/2025
2473,MT SOPHIA,-17.16416667,145.8780556,5,1889,2015,115,12,231.7834783,399,2/12/2025
2475,WUJAL WUJAL COMMUNITY,-15.94555556,145.32,13,1913,2010,94,4,190.3446809,398.6,2/12/2025
2476,MOUNT OLIVE,-15.42055556,145.0616667,23,1888,2015,124,4,149.9056452,380,2/12/2025
2477,STATION,-17.13416667,145.4280556,594,1951,2011,56,5,100.9964286,284.8,2/12/2025
2479,YALKULA,-16.75,145.3330556,380,1911,2015,100,5,137.213,383.5,2/12/2025
2480,SHIPTONS FLAT,-15.795,145.2441667,229,1959,2006,44,4,166.075,360.6,2/12/2025
2481,WETHERBY,-16.64944444,145.35,482,1938,1987,39,11,117.2615385,285,2/12/2025
2482,STATION,-16.5,144.9830556,361,1959,2015,26,31,97.64230769,240,2/12/2025
2483,KAREEYA TM,-17.76666667,145.5769444,216,1958,2005,31,17,150.7741935,350.5,2/12/2025
2484,STATION,-17.77166667,145.3355556,914,1888,1993,105,1,97.30571429,355.6,2/12/2025
2485,STATION,-17.71666667,145.25,85,1972,1986,15,0,90.50666667,198,2/12/2025
2486,NYMBOOL,-17.635,145.0444444,700,1903,2015,106,7,90.06132075,226.1,2/12/2025
2487,WOODLEIGH,-17.67555556,145.2780556,630,1903,2015,111,2,89.80900901,266.7,2/12/2025
2488,MAREEBA TOBACCO RES,-17.01666667,145.4666667,396,1896,2015,116,4,98.4637931,269,2/12/2025
2489,STATION,-17.05055556,145.1694444,520,1890,2010,108,13,100.8203704,279.4,2/12/2025
2491,MAREEBA SOUTH EDGE RES,-16.97916667,145.3516667,500,1932,2015,79,5,103.3417722,229.6,2/12/2025
2492,UPPER BARRON 1,-17.34388889,145.5027778,750,1895,2015,114,7,126.9701754,338.8,2/12/2025
2494,DAINTREE VILLAGE,-16.25055556,145.3191667,40,1911,2015,105,0,208.3628571,386.3,2/12/2025
2496,HAZELMERE,-15.38805556,145.0355556,50,1888,2015,124,4,149.0322581,380,2/12/2025
2497,TOPAZ TOWALLA RD,-17.43805556,145.7191667,710,1926,2015,86,4,179.9918605,370,2/12/2025
2498,ALMADEN,-17.33916667,144.6791667,493,1973,2015,42,1,87.18809524,189,2/12/2025
2499,MARYFARMS POST OFFICE,-16.56666667,145.1830556,529,1938,1987,39,11,117.2615385,285,2/12/2025
2500,STATION,-15.13527778,145.0880556,70,1917,2009,62,31,152.2516129,289,2/12/2025
2502,TUMOULIN,-17.56666667,145.4494444,900,1888,2015,127,1,113.4181102,355.6,2/12/2025
2505,MANDALEE,-17.73305556,145.2666667,755,1959,2001,12,31,91.125,229.6,2/12/2025
2506,THE GORGE,-17.16666667,145.8330556,292,1912,1978,27,40,201.0185185,379.7,2/12/2025
2507,BELLENDEN KER BOTTOM STN,-17.27,145.8991667,108,1899,2015,87,30,274.4942529,399,2/12/2025
2508,BELLENDEN KER TOP STN,-17.26388889,145.8530556,1545,1974,1974,1,0,280.5,280.5,2/12/2025
2509,IVOR PARK,-15.11666667,145.0330556,94,1917,2009,62,31,149.9564516,289,2/12/2025
2510,HAPPY VALLEY,-17.34805556,145.8925,60,1893,2015,120,3,277.07,399,2/12/2025
2513,LIZARD ISLAND RESORT,-14.66805556,145.4466667,10,1973,2015,28,15,128.0178571,306.6,2/12/2025
2516,UPPER BARRON 2,-17.43305556,145.5,914,1888,2015,127,1,120.3653543,383.4,2/12/2025
2517,UPPER FRESHWATER,-16.96666667,145.6830556,463,1962,2015,21,33,218.2190476,340,2/12/2025
2518,BARRON GORGE POWER STN,-16.85,145.65,219,1890,1972,28,55,197.1571429,360.7,2/12/2025
2519,BUTCHERS CREEK,-17.35,145.6830556,649,1914,2015,101,1,166.5792079,396.7,2/12/2025
2520,WATSONVILLE POST OFFICE,-17.38305556,145.3166667,930,1888,2015,126,2,110.9015873,355.6,2/12/2025
2521,CAPE FLATTERY SILICA,-14.95666667,145.3316667,9,1976,2001,24,2,141.6041667,227.6,2/12/2025
2522,STATION,-18.06666667,145.4166667,600,1913,2015,99,4,93.16767677,250,2/12/2025
2523,GLEN HARDING,-18.25305556,145.1266667,650,1941,2015,71,4,88.51267606,227.3,2/12/2025
2524,ATHERTON CSIRO,-17.26166667,145.4730556,800,1895,2015,112,9,127.4946429,338.8,2/12/2025
2525,ADAMS,-17.58305556,145.6,762,1948,2015,67,1,143.1134328,393,2/12/2025
2526,BARRON UPPER 1,-17.39805556,145.5055556,800,1895,2015,112,9,134.0678571,343.4,2/12/2025
2528,CAIRNS SEVERIN ST,-16.92805556,145.7641667,3,1888,2015,128,0,192.9515625,390.4,2/12/2025
2529,TOPAZ 2,-17.46916667,145.7305556,686,1954,2015,52,10,221.1,364,2/12/2025
2530,GREENHAVEN,-17.58694444,145.6,900,1888,2015,127,1,141.1456693,383.4,2/12/2025
2531,KURANDA VAN PARK,-16.81805556,145.6263889,354,1899,2015,115,2,194.6643478,396,2/12/2025
2533,MEADOWBANK,-18.24166667,144.9880556,366,1959,2010,46,6,84.75652174,178,2/12/2025
2536,GLEN ALLYN,-17.39805556,145.6655556,800,1895,2015,112,9,140.5142857,379.2,2/12/2025
2538,MOUNT CARBINE TOWNSHIP,-16.53166667,145.1325,365,1959,2015,26,31,97.64230769,240,2/12/2025
2539,BARTLE VIEW ALERT,-17.545,145.7155556,580,2003,2014,11,1,225.3636364,360,2/12/2025
2540,GREENHAVEN ALERT,-17.58694444,145.5991667,860,1915,2015,67,34,163.9522388,383.4,2/12/2025
2541,MALANDA ALERT,-17.35916667,145.5916667,770,1895,2015,114,7,132.9535088,379.2,2/12/2025
2542,MCKELL ROAD ALERT,-17.44416667,145.5091667,1038,1923,2015,84,9,121.5190476,326,2/12/2025
2543,MILLAA MILLAA ALERT,-17.51694444,145.6088889,861,1915,2015,67,34,161.6149254,383.4,2/12/2025
2544,SUTTIES CREEK ALERT,-17.68027778,145.6602778,640,1980,2015,36,0,199.75,307,2/12/2025
2546,MAREEBA TM,-17.00388889,145.4280556,381,1896,2015,116,4,98.21293103,269,2/12/2025
2547,WHITE CLIFF POINT,-16.65805556,145.5666667,10,1888,2015,117,11,180.5931624,389.6,2/12/2025
2549,MURRAY SPRINGS ALERT,-18.14916667,145.4802778,863,2003,2015,11,2,82.18181818,212,2/12/2025
2551,HERBERTON MOWBRAY RD,-17.37305556,145.3844444,899,1888,2002,113,2,104.8955752,355.6,2/12/2025
2552,MT GARNET ALERT,-17.70416667,145.1455556,663,1903,2015,111,2,86.98288288,210.8,2/12/2025
2553,UPPER RUDD CREEK ALERT,-18.03916667,144.8855556,762,2001,2015,11,4,84.63636364,222,2/12/2025
2554,HERBERTON ALERT,-17.37666667,145.3802778,963,1888,2015,126,2,112.9063492,355.6,2/12/2025
2556,RAVENSHOE ALERT,-17.59055556,145.5291667,1080,1994,2015,17,5,121.9411765,195,2/12/2025
2559,BABINDA SUGAR MILL,-17.34,145.9252778,21,1888,2015,128,0,264.840625,399,2/12/2025
2560,REEF PARK,-16.52555556,145.4625,15,1888,2015,127,1,178.2299213,372.9,2/12/2025
2561,COPPERLODE DAM ALERT,-16.97916667,145.6741667,447,1962,2015,21,33,218.2190476,340,2/12/2025
2562,KURANDA HILLTOP,-16.82055556,145.6344444,381,1899,2015,115,2,191.8730435,396,2/12/2025
2564,TREE HOUSE CREEK,-17.27666667,145.9566667,75,1899,2015,87,30,269.4022989,399,2/12/2025
2565,COOKTOWN AIRPORT,-15.44555556,145.1855556,5,1888,2015,124,4,155.4653226,397.5,2/12/2025
2566,MAREEBA AIRPORT,-17.06666667,145.4280556,472,1932,2015,75,9,99.84533333,229.6,2/12/2025
2567,WONDECLA,-17.43416667,145.44,951,1888,2015,118,10,113.3618644,355.6,2/12/2025
2569,ANTIL PLAINS RAILWAY STN,-19.43305556,146.8330556,39,1888,2015,128,0,140.9765625,370.3,2/12/2025
2570,BAMBAROO,-18.88277778,146.17,13,1920,2015,94,2,181.05,397.8,2/12/2025
2571,BEMERSIDE,-18.57416667,146.2225,10,1893,2015,123,0,199.0268293,399.5,2/12/2025
2572,COORUMBA,-17.55,145.9,198,1929,1987,31,28,243.9935484,394.7,2/12/2025
2573,CARDWELL MARINE PDE,-18.25527778,146.0191667,5,1888,2015,122,6,194.7942623,391.4,2/12/2025
2574,CAPE CLEVELAND LIGHTHOUSE,-19.18305556,147.0166667,58,1928,2013,81,5,145.7333333,356.1,2/12/2025
2575,CARRUCHAN,-18.2,145.8830556,410,1926,1959,32,2,194.38125,342.9,2/12/2025
2576,CASHMERE,-18.14944444,145.35,618,1913,2009,85,12,95.99764706,259,2/12/2025
2577,CLARKE RIVER TELECOM,-19.21666667,145.4330556,360,1897,2015,113,6,75.61946903,193,2/12/2025
2578,BINGIL BAY,-17.835,146.0980556,25,1926,2015,90,0,212.6188889,374.4,2/12/2025
2579,NERADA TEA,-17.55,145.8830556,198,1929,1987,31,28,243.9935484,394.7,2/12/2025
2580,ELLENVIEW,-18.8,145.9,593,1917,1950,32,2,121.8875,279.4,2/12/2025
2581,ELPHINSTONE POCKET,-18.63305556,146.1666667,259,1940,1952,6,7,197.5833333,282.4,2/12/2025
2582,EURAMO POST OFFICE,-18,145.9330556,87,1927,1945,9,10,244.2111111,331.5,2/12/2025
2583,EWAN POST OFFICE,-19.11666667,145.8330556,300,1902,2009,53,55,90.56415094,298.8,2/12/2025
2584,FELUGA,-17.88305556,145.9666667,29,1926,2015,90,0,250.98,395,2/12/2025
2585,FLYING FISH POINT,-17.49416667,146.0741667,5,1888,2015,128,0,227.5015625,398.8,2/12/2025
2586,EUBENANGEE,-17.46666667,145.9666667,8,1888,2015,128,0,235.1632813,398.5,2/12/2025
2587,GLENEAGLE,-18.1675,145.3380556,557,1934,2015,76,6,87.00657895,205,2/12/2025
2588,JAPOONVALE WARRAKIN RD,-17.72138889,145.9216667,50,1888,2015,128,0,222.9796875,398.5,2/12/2025
2589,MARCO STREET ALERT,-17.55555556,145.9555556,140,1940,2015,58,18,225.3275862,390,2/12/2025
2590,GOONDI MILL CSR,-17.51666667,146.0166667,27,1888,2015,128,0,234.9882813,398.5,2/12/2025
2591,HALIFAX MACROSSAN ST,-18.58166667,146.2838889,9,1893,2015,123,0,195.6747967,398.3,2/12/2025
2592,INGHAM POST OFFICE,-18.65,146.1666667,13,1893,2015,123,0,189.4674797,382.3,2/12/2025
2593,INNISFAIL,-17.52444444,146.0341667,10,1888,2015,128,0,237.9070313,398.8,2/12/2025
2594,JAPOONVALE STATE SCHOOL,-17.71666667,145.9330556,156,1913,2015,61,42,234.457377,394.7,2/12/2025
2595,STATION,-18.93305556,145.6691667,360,1913,2015,87,16,83.6954023,253.6,2/12/2025
2596,STATION,-18.14027778,145.61,600,1913,2015,70,33,110.2628571,266.4,2/12/2025
2597,LONG POCKET,-18.53305556,146,141,1926,1971,46,0,169.9413043,326.4,2/12/2025
2598,LOWER TULLY POST OFFICE,-18,146,18,1926,2015,90,0,247.4688889,395,2/12/2025
2599,LUCINDA TOWNSHIP,-18.54055556,146.3355556,6,1893,2015,123,0,185.4317073,379,2/12/2025
2600,MACKNADE SUGAR MILL,-18.58666667,146.2505556,10,1893,2015,123,0,202.4390244,399.5,2/12/2025
2601,RUSSELL RIVER,-17.46055556,145.8816667,60,1893,2015,120,3,256.3691667,398.5,2/12/2025
2602,MOURILYAN POST OFFICE,-17.585,146.0416667,29,1888,2015,128,0,220.5242188,386.6,2/12/2025
2603,WARRAMI,-18.1,145.8166667,30,1927,2015,88,1,203.0647727,395,2/12/2025
2604,STATION,-18.53305556,145.6,631,1914,1965,43,9,95.00697674,273.1,2/12/2025
2605,SOUTH JOHNSTONE EXP STN,-17.60527778,145.9966667,18,1888,2015,128,0,221.4554688,398.5,2/12/2025
2606,SOUTH JOHNSTONE POST OFFICE,-17.6,146,40,1888,2015,128,0,224.5265625,398.5,2/12/2025
2607,STONE RIVER PRISON FARM,-18.78305556,145.9666667,60,1920,2015,94,2,161.2265957,380,2/12/2025
2608,TOWNSVILLE AERO,-19.24805556,146.7655556,4,1888,2015,128,0,141.078125,366.5,2/12/2025
2609,TOWNSVILLE RAILWAY STN,-19.26805556,146.815,4,1888,2015,128,0,144.0460938,361.7,2/12/2025
2610,TULLY SUGAR MILL,-17.93638889,145.9252778,19,1926,2015,90,0,256.3766667,395,2/12/2025
2611,UPPER STONE EXELBY,-18.72166667,145.9233333,62,1939,2015,74,3,153.2837838,325.1,2/12/2025
2612,VALLEY OF LAGOONS,-18.66055556,145.1030556,490,1913,2002,88,2,79.90909091,249.9,2/12/2025
2613,VICTORIA SUGAR MILL,-18.65055556,146.2041667,10,1893,2015,123,0,189.5772358,382.3,2/12/2025
2615,STATION,-19.26666667,146.8166667,4,1888,2015,128,0,145.1898438,361.7,2/12/2025
2616,STATION,-18.45,145.3166667,518,1933,1974,37,5,88.92432432,306.1,2/12/2025
2617,STATION,-19.83305556,146.7666667,272,1894,2013,112,8,95.81428571,351.8,2/12/2025
2618,YABULU QLD NICKEL,-19.20305556,146.6130556,9,1888,2015,128,0,149.8609375,391,2/12/2025
2619,TOKALON,-18.68305556,146.15,53,1893,2015,123,0,192.9300813,382.3,2/12/2025
2620,ABERGOWRIE POST OFFICE,-18.48305556,145.8830556,40,1955,2015,61,0,162.8393443,360.2,2/12/2025
2621,MENA CREEK,-17.66666667,145.8830556,71,1893,2015,119,4,225.2815126,398.5,2/12/2025
2622,STATION,-18.18305556,145.1166667,640,1913,2015,95,8,89.61578947,242.1,2/12/2025
2623,SILKWOOD POST OFFICE,-17.73666667,146.0030556,15,1888,2015,128,0,223.296875,386.6,2/12/2025
2624,GARRADUNGA POST OFFICE,-17.46666667,146,115,1899,2015,87,30,246.4850575,386.6,2/12/2025
2625,OONOONBA,-19.29027778,146.8105556,9,1888,2015,128,0,143.1242188,361.7,2/12/2025
2627,WEONA,-18.82055556,145.8466667,853,1961,2004,40,4,137.8425,345,2/12/2025
2628,KIRRAMA FORESTRY,-18.2,145.75,610,1913,2015,50,53,120.924,348.5,2/12/2025
2629,BOTTOM OF PIN GIN,-17.53305556,145.9666667,40,1888,2015,128,0,229.5226563,398.5,2/12/2025
2631,BLUE RANGE,-19.16416667,145.4205556,367,1897,2015,113,6,75.78230088,193,2/12/2025
2632,PALUMA IVY COTTAGE,-19.00694444,146.2055556,892,1969,2008,34,6,211.0323529,360,2/12/2025
2633,MOUNT STUART CHANNEL,-19.35,146.7666667,579,1964,2015,18,34,155.6833333,313.7,2/12/2025
2634,MIDWAY,-18.1,145.8666667,30,1888,2015,124,4,206.3370968,395,2/12/2025
2635,OLLERA CREEK,-19,146.3,528,1913,1925,13,0,156.3230769,288.3,2/12/2025
2636,SUNNYSIDE,-19.6,147.0166667,135,1918,1944,27,0,150.4148148,279.4,2/12/2025
2637,BANYAN,-17.91666667,145.9166667,178,1913,1954,29,13,254.1793103,369.1,2/12/2025
